Country,District,Village,Village_ID,Village_Chief,Address,lat,lng
基隆市,中正區,德義里,10017010-001,張建源,基隆市中正區義二路97之 1號,25.1327883,121.746435
基隆市,中正區,正義里,10017010-002,駱錫賢,基隆市中正區義二路147號,25.1338823,121.747188
基隆市,中正區,信義里,10017010-003,江添丁,基隆市中正區正義路69號,25.1345211,121.7483922
基隆市,中正區,義重里,10017010-004,林世英,基隆市中正區義二路252巷1之2號,25.1359302,121.7488892
基隆市,中正區,港通里,10017010-005,簡進發,基隆市中正區中正路34號11F之4,25.133391,121.7450258
基隆市,中正區,中船里,10017010-006,蔣春生,基隆市中正區中船路36巷12弄32號,25.1351325,121.7517743
基隆市,中正區,正船里,10017010-007,江惠卿,基隆市中正區中船路5巷19號6F,25.1378074,121.7503488
基隆市,中正區,入船里,10017010-008,沈春重,基隆市中正區中船路112巷62號,25.1388621,121.7529826
基隆市,中正區,中砂里,10017010-009,郭蒼成,基隆市中正區中船路112巷4號,25.1379746,121.7515667
基隆市,中正區,正砂里,10017010-010,俞明發,基隆市中正區中正路179號3F,25.1424553,121.7606769
基隆市,中正區,真砂里,10017010-011,魏君龍,基隆市中正區中正路318巷13號,25.1423485,121.7614705
基隆市,中正區,砂灣里,10017010-012,簡曉東,基隆市中正區祥豐街185之2號,25.1432079,121.7653067
基隆市,中正區,建國里,10017010-013,王雅蘭,基隆市中正區祥豐街177巷60之3號,25.1442858,121.7659372
基隆市,中正區,中濱里,10017010-014,謝東榮,基隆市中正區武昌街104巷58號2樓,25.1488397,121.7652944
基隆市,中正區,海濱里,10017010-015,莊哲豪,基隆市中正區北寧路31巷41之7號,25.1515223,121.7736316
基隆市,中正區,社寮里,10017010-016,范詠翔,基隆市中正區和一路41巷2弄28號,25.1546996,121.7666057
基隆市,中正區,和憲里,10017010-017,蘇來成,基隆市中正區和平街25號4F,25.1557775,121.7682838
基隆市,中正區,平寮里,10017010-018,蔡淑貞,基隆市中正區平三路39之2號,25.1557709,121.7631252
基隆市,中正區,八斗里,10017010-019,杜劍秋,基隆市中正區漁港三街68號4樓,25.1413438,121.7964908
基隆市,中正區,碧砂里,10017010-020,黃志強,基隆市中正區北寧路346號3F,25.1407059,121.7922605
基隆市,中正區,長潭里,10017010-021,鍾麗美,基隆市中正區北寧路369巷14號2樓,25.1409909,121.7998001
基隆市,中正區,砂子里,10017010-022,曾秀菁,基隆市中正區觀海街198號13樓,25.1362687,121.7956374
基隆市,中正區,中正里,10017010-023,梁火龍,基隆市中正區中正路393巷38之4號,25.151232,121.7671371
基隆市,中正區,正濱里,10017010-024,林耀基,基隆市中正區中正路517號,25.1526683,121.7683008
基隆市,中正區,新豐里,10017010-025,丁麗娜,基隆市中正區新豐街326號,25.1359695,121.7869112
基隆市,中正區,新富里,10017010-026,蕭猷盛,基隆市中正區新豐街345之3號3樓,25.1356226,121.7871372
基隆市,七堵區,長興里,10017020-001,姚琴富,基隆市七堵區東新街76巷7號,25.0945391,121.7201107
基隆市,七堵區,正光里,10017020-002,邱繼彥,基隆市七堵區開元路44號,25.096668,121.7146094
基隆市,七堵區,富民里,10017020-003,吳明宗,基隆市七堵區崇廉街10巷10號,25.099206,121.7166266
基隆市,七堵區,永平里,10017020-004,黃朝家,基隆市七堵區崇智街11巷26號,25.0993008,121.7126451
基隆市,七堵區,永安里,10017020-005,陳君治,基隆市七堵區自治北街35號,25.0979429,121.711918
基隆市,七堵區,八德里,10017020-006,余文財,基隆市七堵區大華一路61巷18號,25.1016452,121.7154335
基隆市,七堵區,自強里,10017020-007,張仁化,基隆市七堵區自強路16號,25.101377,121.713105
基隆市,七堵區,六堵里,10017020-008,廖國勳,基隆市七堵區工建路1之8號,25.091164,121.701754
基隆市,七堵區,泰安里,10017020-009,詹仁豪,基隆市七堵區泰安路23之60號,25.0884125,121.7083577
基隆市,七堵區,堵北里,10017020-010,林俊德,基隆市七堵區福一街136號,25.083386,121.6952786
基隆市,七堵區,堵南里,10017020-011,余佩儒,基隆市七堵區溪頭街23號,25.0829619,121.6891928
基隆市,七堵區,瑪南里,10017020-012,蘇陳素花,基隆市七堵區大華二路150號,25.1111407,121.6889667
基隆市,七堵區,瑪東里,10017020-013,李文良,基隆市七堵區大同街60之1號,25.1397107,121.6815642
基隆市,七堵區,瑪西里,10017020-014,陳美雲,基隆市七堵區大華三路36號,25.123009,121.678705
基隆市,七堵區,友一里,10017020-015,陳春炎,基隆市七堵區華新一路126號,25.1006353,121.6664521
基隆市,七堵區,友二里,10017020-016,蘇秋福,基隆市七堵區華新二路97巷5號,25.1157773,121.6568882
基隆市,七堵區,正明里,10017020-017,高崑繽,基隆市七堵區開元路102之2號1樓,25.0959834,121.7125222
基隆市,七堵區,百福里,10017020-018,何孟翰,基隆市七堵區百五街91號,25.0841927,121.6977919
基隆市,七堵區,實踐里,10017020-019,吳麗如,基隆市七堵區福二街55號,25.0810213,121.696202
基隆市,七堵區,長安里,10017020-020,張聰龍,基隆市七堵區長安街243巷10號,25.0740855,121.6965486
基隆市,暖暖區,八西里,10017030-001,林明傳,基隆市暖暖區尚仁街35之4號,25.1116517,121.7337595
基隆市,暖暖區,八堵里,10017030-002,蔡毓濱,基隆市暖暖區源遠路7號,25.1087388,121.7318993
基隆市,暖暖區,八南里,10017030-003,陳碧琴,基隆市暖暖區八堵路185巷77號,25.1011912,121.7255855
基隆市,暖暖區,過港里,10017030-004,陳清池,基隆市暖暖區過港路287號,25.1074035,121.7358177
基隆市,暖暖區,碇內里,10017030-005,林錦隆,基隆市暖暖區暖碇路15巷34之5號,25.0966561,121.7528661
基隆市,暖暖區,碇和里,10017030-006,林香,基隆市暖暖區源遠路190號6F,25.098243,121.7504253
基隆市,暖暖區,暖同里,10017030-007,林明坤,基隆市暖暖區暖暖街16巷54之1號,25.1011596,121.7370764
基隆市,暖暖區,暖暖里,10017030-008,陳建興,基隆市暖暖區暖暖街199號1F,25.098865,121.7354549
基隆市,暖暖區,暖東里,10017030-009,林嘉萬,基隆市暖暖區東勢街117號,25.1000526,121.7364315
基隆市,暖暖區,暖西里,10017030-010,周明信,基隆市暖暖區東勢街26巷103號2F,25.096006,121.7379746
基隆市,暖暖區,八中里,10017030-011,俞偉明,基隆市暖暖區金華街179號,25.1096003,121.7296746
基隆市,暖暖區,碇安里,10017030-012,余香慧,基隆市暖暖區源遠路297巷65號,25.1003587,121.7568149
基隆市,暖暖區,碇祥里,10017030-013,馮瑞枝,基隆市暖暖區碇內街324號3F,25.089474,121.752776
基隆市,仁愛區,林泉里,10017040-001,駱俊雄,基隆市仁愛區復興街70巷22號,25.1247659,121.7522938
基隆市,仁愛區,花崗里,10017040-002,姜永國,基隆市仁愛區仁一路133號4樓,25.1277669,121.752405
基隆市,仁愛區,虹橋里,10017040-003,李碧霞,基隆市仁愛區劉銘傳路63巷18之2號,25.125683,121.751199
基隆市,仁愛區,水錦里,10017040-004,林國星,基隆市仁愛區愛六路21號2樓,25.12811,121.747118
基隆市,仁愛區,智仁里,10017040-005,郭智勇,基隆市仁愛區愛七路22號5樓,25.1267843,121.748967
基隆市,仁愛區,和明里,10017040-006,陳建平,基隆市仁愛區愛五路24號3F,25.128375,121.74576
基隆市,仁愛區,忠勇里,10017040-007,林羅清梅,基隆市仁愛區愛五路6巷19弄22之3號底二層,25.1265273,121.7457581
基隆市,仁愛區,玉田里,10017040-008,闕美玉,基隆市仁愛區愛四路10巷39號,25.127779,121.743535
基隆市,仁愛區,仁德里,10017040-009,王朝成,基隆市仁愛區孝一路75號,25.1299204,121.7414275
基隆市,仁愛區,博愛里,10017040-010,邱三元,基隆市仁愛區仁四路5號,25.1275217,121.7429902
基隆市,仁愛區,福仁里,10017040-011,林木火,基隆市仁愛區南榮路55巷8-2號3樓,25.126249,121.743103
基隆市,仁愛區,誠仁里,10017040-012,洪棟全,基隆市仁愛區南榮路151巷31弄12號2樓,25.1245475,121.7439932
基隆市,仁愛區,吉仁里,10017040-013,李建德,基隆市仁愛區南新街58號,25.1238787,121.7441561
基隆市,仁愛區,育仁里,10017040-014,藍正信,基隆市仁愛區南榮路339號,25.119137,121.7436417
基隆市,仁愛區,英仁里,10017040-015,楊凱婷,基隆市仁愛區南榮路443號,25.1159156,121.7435042
基隆市,仁愛區,龍門里,10017040-016,林宗益,基隆市仁愛區龍安街401號,25.1201735,121.7425846
基隆市,仁愛區,德厚里,10017040-017,林金旺,基隆市仁愛區龍安街198巷23號,25.1228339,121.7416765
基隆市,仁愛區,曲水里,10017040-018,徐鄭麗鳳,基隆市仁愛區曲水街31號,25.1213471,121.742942
基隆市,仁愛區,崇文里,10017040-019,陳明楷,基隆市仁愛區南榮路34號,25.1252908,121.7427404
基隆市,仁愛區,文安里,10017040-020,李隆進,基隆市仁愛區崇安街36巷22號,25.1265607,121.7407441
基隆市,仁愛區,兆連里,10017040-021,潘國龍,基隆市仁愛區獅球路1號,25.126134,121.73947
基隆市,仁愛區,獅球里,10017040-022,林錦榮,基隆市仁愛區獅球路117號,25.1244615,121.7375793
基隆市,仁愛區,書院里,10017040-023,林文肯,基隆市仁愛區獅球路48巷26號,25.12428,121.735982
基隆市,仁愛區,朝棟里,10017040-024,李光健,基隆市仁愛區成功一路133巷23號3樓之1,25.1289889,121.7358609
基隆市,仁愛區,明德里,10017040-025,許文杰,基隆市仁愛區公園街331號,25.1293088,121.7379729
基隆市,仁愛區,同風里,10017040-026,戴學禮,基隆市仁愛區孝一路23巷5弄1號,25.128759,121.7399125
基隆市,仁愛區,文昌里,10017040-027,王明清,基隆市仁愛區孝三路65巷18號,25.1302267,121.7387495
基隆市,仁愛區,新店里,10017040-028,陳祐益,基隆市仁愛區孝二路46巷10號,25.129218,121.740298
基隆市,仁愛區,光華里,10017040-029,陳世豐,基隆市仁愛區華二街9號,25.1264463,121.7372049
基隆市,中山區,新建里,10017050-001,高瑞堂,基隆市中山區成功二路26號,25.1297133,121.7368689
基隆市,中山區,安民里,10017050-002,羅聰德,基隆市中山區安一路94號,25.131668,121.7356569
基隆市,中山區,安平里,10017050-003,楊榮豐,基隆市中山區安一路21號,25.1313512,121.7370677
基隆市,中山區,中山里,10017050-004,羅予廷,基隆市中山區中山一路145巷57號,25.1330077,121.7378275
基隆市,中山區,民治里,10017050-005,施財濃,基隆市中山區中山一路241巷106號,25.136065,121.738196
基隆市,中山區,中興里,10017050-006,李進發,基隆市中山區中山二路51巷20之3號,25.1378763,121.7401633
基隆市,中山區,仁正里,10017050-007,陳炳楠,基隆市中山區中山二路89巷1號,25.13978,121.7394883
基隆市,中山區,健民里,10017050-008,郭正勇,基隆市中山區健民街1巷1弄11號,25.141966,121.738249
基隆市,中山區,通化里,10017050-009,徐麗玲,基隆市中山區中華路27號,25.145771,121.738472
基隆市,中山區,居仁里,10017050-010,鄭淑華,基隆市中山區通仁街131號地下室,25.1446131,121.7351199
基隆市,中山區,通明里,10017050-011,蘇祐平,基隆市中山區中華路105巷5之1號,25.1479521,121.7378086
基隆市,中山區,協和里,10017050-012,張中信,基隆市中山區文化路108巷2號,25.153805,121.734497
基隆市,中山區,文化里,10017050-013,李麗真,基隆市中山區文明路43巷35號4樓,25.155875,121.7299322
基隆市,中山區,仙洞里,10017050-014,何銘松,基隆市中山區仁安街71巷1號4F,25.1457042,121.7472348
基隆市,中山區,太白里,10017050-015,鄭吉雄,基隆市中山區光華路15巷34號2樓,25.1535624,121.7439171
基隆市,中山區,西榮里,10017050-016,郭朝鐘,基隆市中山區西定路73號,25.1334103,121.7350016
基隆市,中山區,西華里,10017050-017,陳柏豪,基隆市中山區西定路139號,25.1345635,121.7342592
基隆市,中山區,西定里,10017050-018,謝萬利,基隆市中山區西定路247號,25.1369975,121.7321957
基隆市,中山區,西康里,10017050-019,張繼志,基隆市中山區西定路423巷30號,25.1402482,121.727937
基隆市,中山區,德和里,10017050-020,曾聖為,基隆市中山區復興路212巷12弄26之2號,25.1473903,121.728027
基隆市,中山區,中和里,10017050-021,蘇彩雪,基隆市中山區中和路85巷36之3號,25.1482385,121.7220195
基隆市,中山區,德安里,10017050-022,謝銘傳,基隆市中山區復興路331巷32號,25.1511169,121.727688
基隆市,中山區,和平里,10017050-023,張和妹,基隆市中山區中山三路103巷80號,25.142794,121.7443093
基隆市,中山區,和慶里,10017050-024,李詹淇,基隆市中山區中和路168巷8弄16號3樓,25.1499358,121.7159473
基隆市,安樂區,西川里,10017060-001,王忠誠,基隆市安樂區新西街11巷11號2F,25.1377571,121.7300382
基隆市,安樂區,定國里,10017060-002,石北海,基隆市安樂區定國街119巷5號,25.135366,121.73265
基隆市,安樂區,新西里,10017060-003,陳漢昭,基隆市安樂區新西街207巷15號,25.141675,121.724504
基隆市,安樂區,定邦里,10017060-004,林惠蓮,基隆市安樂區安一路100巷31號,25.132189,121.7342508
基隆市,安樂區,慈仁里,10017060-005,陳禮信,基隆市安樂區安一路190號4F,25.1326469,121.732353
基隆市,安樂區,干城里,10017060-006,俞秀真,基隆市安樂區安一路310號2F,25.1324909,121.7284127
基隆市,安樂區,永康里,10017060-007,陳銘坤,基隆市安樂區崇德路10巷42號,25.1301765,121.728889
基隆市,安樂區,嘉仁里,10017060-008,王貴美,基隆市安樂區崇德路184號,25.127566,121.731445
基隆市,安樂區,安和里,10017060-009,童意鵬,基隆市安樂區樂一路6號,25.131639,121.734485
基隆市,安樂區,樂一里,10017060-010,郭時福,基隆市安樂區樂一路43巷2號,25.1310459,121.734565
基隆市,安樂區,外寮里,10017060-011,顏厚廣,基隆市安樂區基金一路129巷1之4號3樓,25.139572,121.7125705
基隆市,安樂區,中崙里,10017060-012,李源林,基隆市安樂區基金二路1巷1號,25.142195,121.703071
基隆市,安樂區,內寮里,10017060-013,嚴福神,基隆市安樂區武隆街105巷18號,25.1588749,121.6932517
基隆市,安樂區,新崙里,10017060-014,林金龍,基隆市安樂區基金一路210巷1弄29之2號,25.1428908,121.7088946
基隆市,安樂區,三民里,10017060-015,許超勝,基隆市安樂區麥金路439巷17號,25.1259254,121.7183166
基隆市,安樂區,四維里,10017060-016,黃雅玲,基隆市安樂區安和一街330巷6之1號10F,25.1289608,121.7237147
基隆市,安樂區,五福里,10017060-017,舒瑞利,基隆市安樂區樂利三街36巷51之2號,25.1253671,121.7139362
基隆市,安樂區,六合里,10017060-018,潘德發,基隆市安樂區樂利三街263巷3弄1之3號,25.1270843,121.7158465
基隆市,安樂區,七賢里,10017060-019,林慶寶,基隆市安樂區安和一街6巷22之4號5F,25.122766,121.72402
基隆市,安樂區,鶯歌里,10017060-020,何進守,基隆市安樂區八德路31巷11號,25.1152285,121.7288753
基隆市,安樂區,武崙里,10017060-021,李文財,基隆市安樂區基金一路164號7F,25.1405706,121.7117386
基隆市,安樂區,長樂里,10017060-022,張德發,基隆市安樂區樂利三街8巷33號15樓,25.1300207,121.7185201
基隆市,安樂區,興寮里,10017060-023,黃書筠,基隆市安樂區基金一路75號,25.137389,121.718548
基隆市,安樂區,鶯安里,10017060-024,謝偉仁,基隆市安樂區麥金路191號13F,25.1209365,121.7216659
基隆市,安樂區,壯觀里,10017060-025,楊添發,基隆市安樂區樂利二街62巷18號2F,25.1234187,121.7188138
基隆市,信義區,仁壽里,10017070-001,林東寶,基隆市信義區信二路247巷6號,25.12991,121.747854
基隆市,信義區,仁義里,10017070-002,王柏力,基隆市信義區義六路5號3樓,25.1289615,121.7508974
基隆市,信義區,義昭里,10017070-003,童冠睿,基隆市信義區信二路234巷10號3樓,25.1301157,121.7518408
基隆市,信義區,義幸里,10017070-004,李王環,基隆市信義區信二路174巷36號,25.1298616,121.754398
基隆市,信義區,義民里,10017070-005,連轉旺,基隆市信義區信二路72號,25.1291935,121.7559785
基隆市,信義區,義和里,10017070-006,蔡麗月,基隆市信義區正信路151巷1之23號,25.1307498,121.7579572
基隆市,信義區,智慧里,10017070-007,蔡美玉,基隆市信義區仁一路23號1F,25.127892,121.7552667
基隆市,信義區,智誠里,10017070-008,何希華,基隆市信義區月眉路71之1號,25.1221728,121.7570062
基隆市,信義區,禮儀里,10017070-009,郭金德,基隆市信義區東明路77巷176號5F,25.1270022,121.7610215
基隆市,信義區,禮東里,10017070-010,賴興泉,基隆市信義區東明路77巷1弄16號,25.1272738,121.7634358
基隆市,信義區,信綠里,10017070-011,吳銘達,基隆市信義區東信路310巷13號,25.1289993,121.7606563
基隆市,信義區,東光里,10017070-012,陳裕燦,基隆市信義區崇法街77巷7號,25.1326156,121.765956
基隆市,信義區,東明里,10017070-013,翁誠鍾,基隆市信義區東光路205巷55號,25.1313426,121.7673292
基隆市,信義區,東安里,10017070-014,林睿騰,基隆市信義區培德路2巷38號2F,25.1271593,121.7692168
基隆市,信義區,孝岡里,10017070-015,吳石金,基隆市信義區深澳坑路232之14號,25.124365,121.789688
基隆市,信義區,東信里,10017070-016,賴姵綺,基隆市信義區花源三街58號,25.1340535,121.7645897
基隆市,信義區,孝深里,10017070-017,何國鍊,基隆市信義區深澳坑路172巷10之6號,25.1249172,121.7857372
基隆市,信義區,孝賢里,10017070-018,莊榮清,基隆市信義區教孝街9巷4號,25.1381372,121.7741912
基隆市,信義區,孝德里,10017070-019,朱志偉,基隆市信義區東峰街41巷2號,25.1328227,121.7746685
基隆市,信義區,孝忠里,10017070-020,林崇道,基隆市信義區深溪路36巷58號7樓,25.1318448,121.7828447
台北市,松山區,莊敬里,63000010-002,劉美鳳,台北市松山區撫遠街369巷12號1樓,25.0640887,121.5666171
台北市,松山區,東榮里,63000010-003,鄭玉梅,台北市松山區民生東路5段69巷3號1樓,25.059085,121.55811
台北市,松山區,三民里,63000010-004,謝翠鈴,台北市松山區民生東路5段163-1號8樓,25.0593151,121.5629083
台北市,松山區,新益里,63000010-005,吳美貞,台北市松山區富錦街581巷20號,25.062881,121.5663809
台北市,松山區,富錦里,63000010-006,李煥中,台北市松山區富錦街515號,25.0611989,121.564618
台北市,松山區,新東里,63000010-007,華國雄,台北市松山區延壽街3號,25.0574286,121.5689918
台北市,松山區,富泰里,63000010-008,吳學毅,台北市松山區新東街1巷15號,25.0573387,121.5650763
台北市,松山區,介壽里,63000010-009,蔡錦文,台北市松山區延壽街337之1號2樓,25.0566882,121.5599426
台北市,松山區,精忠里,63000010-010,賴美旭,台北市松山區民生東路4段133號,25.0584809,121.5548551
台北市,松山區,東光里,63000010-011,許秀雲,台北市松山區南京東路5段123巷41號1樓,25.0532968,121.5607619
台北市,松山區,龍田里,63000010-012,袁俊麒,台北市松山區光復北路230巷21號地下1層,25.0562299,121.5544568
台北市,松山區,東昌里,63000010-013,陳志明,台北市松山區民生東路4段112巷7弄24號,25.0565696,121.5552676
台北市,松山區,東勢里,63000010-014,王叔珍,台北市松山區南京東路4段133巷8弄7號,25.0530266,121.5547461
台北市,松山區,中華里,63000010-015,游吉興,台北市松山區敦化北路145巷23弄1號,25.053503,121.550349
台北市,松山區,民有里,63000010-016,江永華,台北市松山區民權東路3段140巷15號4樓,25.0604014,121.5470736
台北市,松山區,民福里,63000010-017,古瑞珍,台北市松山區民權東路3段103巷5弄5號,25.0629166,121.5452768
台北市,松山區,慈祐里,63000010-018,李祖民,台北市松山區八德路4段580號1樓,25.0496978,121.5718394
台北市,松山區,安平里,63000010-019,洪温滿,台北市松山區南京東路5段291巷44弄23-1號5樓,25.053455,121.5655042
台北市,松山區,鵬程里,63000010-020,許顏建,台北市松山區健康路401號,25.0546916,121.5691233
台北市,松山區,自強里,63000010-021,李台華,台北市松山區健康路185巷15號7樓之1,25.0549723,121.5612875
台北市,松山區,吉祥里,63000010-022,陳永昌,台北市松山區八德路4段245巷52弄5號,25.0504311,121.5636963
台北市,松山區,新聚里,63000010-024,郭秀鳳,台北市松山區南京東路5段250巷9之8號,25.0499538,121.5657039
台北市,松山區,復盛里,63000010-025,王正雄,台北市松山區市民大道5段99之3號,25.0477411,121.5613359
台北市,松山區,中正里,63000010-026,洪樸陽,台北市松山區長安東路3段229號12樓,25.0481857,121.5414773
台北市,松山區,中崙里,63000010-027,張陳碧雲,台北市松山區八德路2段410巷16弄6號,25.0472589,121.546315
台北市,松山區,美仁里,63000010-028,林志創,台北市松山區八德路3段99巷10號,25.0489018,121.5534456
台北市,松山區,吉仁里,63000010-029,李全長,台北市松山區八德路3段76號3樓之2(中崙市場區民活動中心),25.0480617,121.5526859
台北市,松山區,敦化里,63000010-030,蘇榮文,台北市松山區八德路3段12巷52弄2之1號,25.046038,121.5505852
台北市,松山區,復源里,63000010-031,温福義,台北市松山區八德路3段158巷12號,25.047565,121.5549759
台北市,松山區,復建里,63000010-032,林坤信,台北市松山區光復南路66巷34號,25.0452742,121.5562141
台北市,松山區,復勢里,63000010-033,徐麗雲,台北市松山區八德路3段199巷8號,25.0490133,121.5561789
台北市,松山區,福成里,63000010-034,葉佐良,台北市松山區敦化南路1段100巷6號2樓A室,25.0461709,121.5483945
台北市,松山區,松基里,63000010-035,黃建賓,台北市松山區長春路339巷2號,25.0552103,121.5452241
台北市,信義區,西村里,63000020-001,馬念慈,台北市信義區基隆路1段364巷22號,25.03501,121.559205
台北市,信義區,正和里,63000020-002,尹俊富,台北市信義區仁愛路4段452巷16號,25.0366927,121.5591034
台北市,信義區,興隆里,63000020-003,羅松美,台北市信義區基隆路1段350之59號,25.036495,121.561356
台北市,信義區,中興里,63000020-004,趙惠美,台北市信義區嘉興街58號,25.0312149,121.5579993
台北市,信義區,新仁里,63000020-005,吳建德,台北市信義區忠孝東路4段553巷22弄21號1樓,25.0413569,121.5656916
台北市,信義區,興雅里,63000020-006,林素琴,台北市信義區松隆路26號,25.0431689,121.567463
台北市,信義區,敦厚里,63000020-007,方聰杰,台北市信義區永吉路30巷102弄14號,25.0436863,121.568312
台北市,信義區,廣居里,63000020-008,楊玉堂,台北市信義區忠孝東路5段372巷27弄75-1號,25.039788,121.576441
台北市,信義區,安康里,63000020-009,萬宇恆,台北市信義區虎林街232巷55號1樓,25.0358279,121.576198
台北市,信義區,六藝里,63000020-010,丁禾溱,台北市信義區永吉路180巷30號,25.0446134,121.5714238
台北市,信義區,雅祥里,63000020-011,高添喜,台北市信義區永吉路127巷21號,25.0464546,121.5702877
台北市,信義區,五常里,63000020-012,黃河村,台北市信義區永吉路225巷7弄34號2樓,25.0466109,121.575103
台北市,信義區,五全里,63000020-013,吳秀好,台北市信義區永吉路278巷1弄13號,25.04506,121.574577
台北市,信義區,永吉里,63000020-014,陳永昌,台北市信義區永吉路517巷1弄10號,25.045947,121.579725
台北市,信義區,長春里,63000020-015,許錦忠,台北市信義區忠孝東路5段423巷47號,25.043001,121.5753259
台北市,信義區,四育里,63000020-016,連圀堂,台北市信義區松山路180號,25.0460419,121.577604
台北市,信義區,四維里,63000020-017,劉耀平,台北市信義區虎林街70巷1號,25.044216,121.576869
台北市,信義區,永春里,63000020-018,許蕙蘭,台北市信義區松山路287巷3弄21號,25.04348,121.578294
台北市,信義區,富台里,63000020-019,陳國華,台北市信義區忠孝東路5段295巷3號,25.0416146,121.572415
台北市,信義區,國業里,63000020-020,林銘賢,台北市信義區虎林街222巷15號,25.0371041,121.576974
台北市,信義區,松隆里,63000020-021,黃俊龍,台北市信義區松山路695號1樓,25.031006,121.581269
台北市,信義區,松友里,63000020-022,張海秋,台北市信義區信義路6段92號,25.035561,121.577433
台北市,信義區,松光里,63000020-023,蔡福來,台北市信義區忠孝東路5段492巷32號,25.0397269,121.578254
台北市,信義區,中坡里,63000020-024,曾傳達,台北市信義區福德街125號,25.0373749,121.5825072
台北市,信義區,中行里,63000020-025,林美君,台北市信義區福德街268巷32號,25.0399266,121.5857949
台北市,信義區,大道里,63000020-026,毛水月,台北市信義區忠孝東路5段790巷62弄4號,25.0411416,121.583114
台北市,信義區,大仁里,63000020-027,蔡桂清,台北市信義區林口街80巷8號,25.03919,121.579637
台北市,信義區,景新里,63000020-028,孫積德,台北市信義區莊敬路178巷20號3樓,25.031533,121.560491
台北市,信義區,惠安里,63000020-029,周葉長,台北市信義區吳興街506巷21號,25.0230019,121.5684803
台北市,信義區,三張里,63000020-030,李伯壽,台北市信義區莊敬路423巷6弄1號,25.0282707,121.5670824
台北市,信義區,三犁里,63000020-031,翁信利,台北市信義區信義路5段150巷14弄6號1樓,25.028386,121.5694865
台北市,信義區,六合里,63000020-032,陳盈如,台北市信義區松仁路240巷19號3樓,25.0243196,121.5688375
台北市,信義區,泰和里,63000020-033,林正義,台北市信義區松仁路308巷60號1樓,25.0212617,121.5701369
台北市,信義區,景聯里,63000020-034,洪福周,台北市信義區吳興街106巷9號,25.0301192,121.5603932
台北市,信義區,景勤里,63000020-035,"陳羿璇
(代理里長)",台北市信義區吳興街156巷6號6樓,25.0290753,121.5611877
台北市,信義區,雙和里,63000020-036,宋祥輝,台北市信義區吳興街284巷24弄16號,25.0242554,121.5629806
台北市,信義區,嘉興里,63000020-037,鄭智耀,台北市信義區嘉興街175巷6號,25.0275587,121.5576687
台北市,信義區,黎順里,63000020-038,卓秀娟,台北市信義區崇德街15號,25.0244485,121.5535299
台北市,信義區,黎平里,63000020-039,楊介舟,台北市信義區富陽街55巷9號,25.0225824,121.5572815
台北市,信義區,黎忠里,63000020-040,黃種釧,台北市信義區和平東路3段391巷24號,25.0204134,121.5584025
台北市,信義區,黎安里,63000020-041,劉梅菊,台北市信義區和平東路3段627巷41弄8之1號,25.0126409,121.5652687
台北市,大安區,德安里,63000030-001,蔡銘宗,台北市大安區四維路78號6樓,25.0341348,121.5480089
台北市,大安區,仁慈里,63000030-002,陳麒中,台北市大安區復興南路1段295巷18號,25.0350927,121.5449814
台北市,大安區,和安里,63000030-003,翁德東,台北市大安區信義路3段109之6號1樓,25.033683,121.539153
台北市,大安區,民炤里,63000030-004,周暉泰,台北市大安區信義路3段31巷5號,25.0341248,121.5347221
台北市,大安區,仁愛里,63000030-005,鄭秀郎,台北市大安區復興南路1段191之1號,25.0401329,121.5440064
台北市,大安區,義村里,63000030-006,潘明勳,台北市大安區忠孝東路3段248巷7弄4號1樓,25.0410225,121.5417856
台北市,大安區,民輝里,63000030-007,陳威禎,台北市大安區濟南路3段9號3樓,25.0402879,121.5337088
台北市,大安區,昌隆里,63000030-008,王志剛,台北市大安區市民大道3段206號4樓之1,25.0443174,121.5399746
台北市,大安區,誠安里,63000030-009,李有福,台北市大安區安東街28號,25.0442432,121.5424343
台北市,大安區,光武里,63000030-010,韓修和,台北市大安區敦化南路1段160巷20號1樓,25.0436152,121.5468628
台北市,大安區,龍坡里,63000030-011,黃世詮,台北市大安區泰順街13-1號,25.025102,121.531544
台北市,大安區,龍泉里,63000030-012,龎維良,台北市大安區雲和街49號1樓,25.0236419,121.5289937
台北市,大安區,古風里,63000030-013,孔憲娟,台北市大安區泰順街60巷2之1號,25.0223609,121.5293271
台北市,大安區,古莊里,63000030-014,劉泓麟,台北市大安區師大路102巷7號,25.0223449,121.5279435
台北市,大安區,龍安里,63000030-015,洪秋甲,台北市大安區和平東路1段199巷4-9號,25.0268979,121.534035
台北市,大安區,錦安里,63000030-016,龔志慧,台北市大安區潮州街130巷3號1樓,25.028468,121.527599
台北市,大安區,福住里,63000030-017,李欣芠,台北市大安區永康街47巷10之1號,25.030064,121.530073
台北市,大安區,永康里,63000030-018,李明螢,台北市大安區金華街199巷3弄6號1樓,25.030536,121.528429
台北市,大安區,光明里,63000030-019,張惠銓,台北市大安區信義路2段86巷26號,25.0337869,121.525774
台北市,大安區,錦泰里,63000030-020,范燕淇,台北市大安區杭州南路2段65巷10號1樓,25.029729,121.522808
台北市,大安區,錦華里,63000030-021,溫美珠,台北市大安區羅斯福路2段35巷19弄6號,25.0279074,121.5230331
台北市,大安區,龍圖里,63000030-022,蕭萬居,台北市大安區建國南路2段25巷6號,25.0324396,121.5382386
台北市,大安區,新龍里,63000030-023,李淑梅,台北市大安區信義路3段134巷82號2樓,25.0294265,121.5392715
台北市,大安區,龍陣里,63000030-026,劉長青,台北市大安區瑞安街75號3樓,25.0282223,121.5410802
台北市,大安區,龍雲里,63000030-027,黃廣明,台北市大安區復興南路2段151巷43號,25.0284697,121.5455043
台北市,大安區,龍生里,63000030-028,沈鳳雲,台北市大安區和平東路2段141號,25.0254178,121.5409897
台北市,大安區,住安里,63000030-029,歐秀珠,台北市大安區信義路4段30巷27弄23號,25.0320114,121.5456563
台北市,大安區,義安里,63000030-030,劉威志,台北市大安區敦化南路2段11巷25-1號,25.0326358,121.5503509
台北市,大安區,通化里,63000030-031,周進財,台北市大安區通化街19巷19號,25.0317687,121.5552786
台北市,大安區,通安里,63000030-032,鄭文明,台北市大安區安和路2段35巷10號,25.0316799,121.5529229
台北市,大安區,臨江里,63000030-033,劉勇雄,台北市大安區通化街143巷33號1樓,25.0284969,121.5559925
台北市,大安區,法治里,63000030-034,林佩燕,台北市大安區通化街201號,25.0267282,121.5533259
台北市,大安區,全安里,63000030-035,林麗珠,台北市大安區和平東路3段89巷19弄3號1樓,25.0245688,121.5509396
台北市,大安區,群賢里,63000030-036,翁鴻源,台北市大安區和平東路2段311巷43弄36號1樓,25.0256027,121.5459978
台北市,大安區,群英里,63000030-037,石忠勝,台北市大安區四維路198巷30弄9號1樓,25.0266678,121.5475605
台北市,大安區,虎嘯里,63000030-038,詹仲琪,台北市大安區和平東路3段46之5號1樓,25.0244586,121.5478993
台北市,大安區,臥龍里,63000030-039,邱奕承,台北市大安區復興南路2段329-1號,25.02369,121.543844
台北市,大安區,龍淵里,63000030-040,汪吉秋,台北市大安區和平東路2段118巷2弄6號,25.0225484,121.5429375
台北市,大安區,龍門里,63000030-041,黃絹家,台北市大安區新生南路3段19巷20號,25.024895,121.536088
台北市,大安區,大學里,63000030-043,吳沛璇,台北市大安區溫州街74巷2弄4號1樓,25.0198771,121.532651
台北市,大安區,芳和里,63000030-044,黃種榮,台北市大安區樂業街99號B1,25.0209838,121.5520284
台北市,大安區,黎元里,63000030-046,柯邱素鑾,台北市大安區辛亥路3段157巷24弄19號,25.0174748,121.5503871
台北市,大安區,黎孝里,63000030-047,方丁輝,台北市大安區臥龍街267之10號,25.0187361,121.5556619
台北市,大安區,黎和里,63000030-048,羅英珍,台北市大安區富陽街111號,25.0196651,121.5568087
台北市,大安區,建安里,63000030-049,溫進亮,台北市大安區敦化南路1段161巷69弄4號2樓,25.0435684,121.5493106
台北市,大安區,建倫里,63000030-050,林正達,台北市大安區敦化南路1段233巷55號,25.0404047,121.5490996
台北市,大安區,敦安里,63000030-051,王 復,台北市大安區仁愛路4段122巷44-1號1樓,25.0347294,121.5500994
台北市,大安區,正聲里,63000030-052,陳秀蘭,台北市大安區光復南路260巷36-1號,25.0403722,121.5558701
台北市,大安區,敦煌里,63000030-053,傅吉田,台北市大安區安和路1段135巷8號1樓,25.0341425,121.5531738
台北市,大安區,華聲里,63000030-054,陳金花,台北市大安區光復南路72巷23弄2號,25.0444203,121.5566313
台北市,大安區,車層里,63000030-055,施桂英,台北市大安區延吉街156號4樓,25.0394905,121.5548177
台北市,大安區,光信里,63000030-056,楊珮菱,台北市大安區延吉街236巷17號2樓,25.0362902,121.5552622
台北市,大安區,學府里,63000030-057,李淳琳,台北市大安區羅斯福路4段119巷66弄8號,25.009344,121.539208
台北市,中山區,正守里,63000040-001,陳育群,台北市中山區林森北路67巷7號2樓,25.0486467,121.5249137
台北市,中山區,正義里,63000040-002,李志勇,台北市中山區林森北路133巷78號1樓,25.0507024,121.5274184
台北市,中山區,正得里,63000040-003,吳蘇秀霞,台北市中山區中山北路1段135巷40號3樓,25.0561769,121.5230036
台北市,中山區,民安里,63000040-004,羅孝英,台北市中山區長安西路3號3樓之1,25.0502099,121.5209542
台北市,中山區,康樂里,63000040-005,王金富,台北市中山區南京東路1段35號1樓,25.0528945,121.5267934
台北市,中山區,中山里,63000040-006,曾瓊梅,台北市中山區中山北路2段59巷18號1樓,25.055778,121.523821
台北市,中山區,聚盛里,63000040-007,舒贑臺,台北市中山區錦州街50號1樓,25.0601911,121.5262946
台北市,中山區,集英里,63000040-008,賴政庸,台北市中山區天祥路9號1樓,25.0608027,121.521153
台北市,中山區,聚葉里,63000040-009,游啟業,台北市中山區中山北路2段137巷35號1樓,25.0618625,121.5246813
台北市,中山區,恆安里,63000040-010,黃志昌,台北市中山區雙城街10巷8號1樓,25.0640896,121.5235639
台北市,中山區,晴光里,63000040-011,林姿吟,台北市中山區雙城街18巷20號1樓,25.0653714,121.5229885
台北市,中山區,圓山里,63000040-012,葉建輝,台北市中山區新生北路3段82巷32號1樓,25.0669104,121.5264395
台北市,中山區,劍潭里,63000040-013,王迎珠,台北市中山區通北街143號1樓,25.0849155,121.5380219
台北市,中山區,大直里,63000040-014,蔡俊賢,台北市中山區北安路595巷30號1樓,25.0820363,121.5470694
台北市,中山區,成功里,63000040-015,李清水,台北市中山區北安路676號1樓（大直計程車休息站內）,25.0844209,121.549935
台北市,中山區,永安里,63000040-016,劉春長,台北市中山區北安路458巷41弄25號1樓,25.079094,121.5459479
台北市,中山區,大佳里,63000040-017,莊欽億,台北市中山區1.民族東路85至89號1樓 2.松江路581巷53號1樓,25.0681118,121.5320201
台北市,中山區,新喜里,63000040-018,吳昇陽,台北市中山區德惠街170巷19號1樓,25.065691,121.531871
台北市,中山區,新庄里,63000040-019,鄧麗珠,台北市中山區農安街125巷43號1樓,25.0661639,121.530056
台北市,中山區,新福里,63000040-020,童勝輝,台北市中山區中原街142號2樓之1,25.0641368,121.5289043
台北市,中山區,松江里,63000040-021,蔣築諠,台北市中山區松江路259巷34號1樓,25.0594464,121.5345904
台北市,中山區,新生里,63000040-022,曾國益,台北市中山區新生北路2段137巷41號1樓,25.0613285,121.5291294
台北市,中山區,中庄里,63000040-023,陳建中,台北市中山區吉林路199巷29號1樓,25.0599761,121.5312904
台北市,中山區,行政里,63000040-024,鄭春華,台北市中山區民權東路2段135巷20弄18號1樓,25.0637425,121.5344063
台北市,中山區,行仁里,63000040-025,陳德賢,台北市中山區龍江路356巷45號1樓,25.0661292,121.5391717
台北市,中山區,行孝里,63000040-026,呂勗淇,台北市中山區民族東路282號5樓,25.0679977,121.5354992
台北市,中山區,下埤里,63000040-027,施士凱,台北市中山區龍江路429巷10號2樓,25.0666534,121.5416919
台北市,中山區,江寧里,63000040-028,徐信洲,台北市中山區合江街127巷23號,25.0608032,121.5401885
台北市,中山區,江山里,63000040-029,劉陽劍,台北市中山區建國北路2段129號2樓,25.060108,121.537589
台北市,中山區,中吉里,63000040-030,林德勝,台北市中山區松江路204巷65號1樓,25.0575458,121.5310186
台北市,中山區,中原里,63000040-031,羅崇華,台北市中山區新生北路2段53號2樓,25.0560942,121.5279621
台北市,中山區,興亞里,63000040-032,林芳薇,台北市中山區吉林路26巷5號2樓,25.0515472,121.5296311
台北市,中山區,中央里,63000040-033,李陳金綉,台北市中山區伊通街125巷11之1號1樓,25.0540977,121.5353459
台北市,中山區,朱馥里,63000040-034,卓志勇,台北市中山區龍江路168號地下1樓,25.0551738,121.5403921
台北市,中山區,龍洲里,63000040-035,陳世明,台北市中山區興安街59號1樓,25.0562326,121.5424798
台北市,中山區,朱園里,63000040-036,李林耀,台北市中山區渭水路50號4樓,25.0456184,121.5348221
台北市,中山區,埤頭里,63000040-037,林銘清,台北市中山區安東街17號1樓,25.0465348,121.5418139
台北市,中山區,朱崙里,63000040-038,高銘鴻,台北市中山區龍江路12號1樓,25.0476588,121.5402711
台北市,中山區,力行里,63000040-039,沈銀德,台北市中山區龍江路37巷19號1樓,25.0488574,121.5411934
台北市,中山區,復華里,63000040-040,黃展輝,台北市中山區遼寧街108巷14號1樓,25.0523959,121.5417203
台北市,中山區,金泰里,63000040-041,游進義,台北市中山區敬業三路160號2樓,25.0795262,121.5568655
台北市,中山區,北安里,63000040-042,陳永忠,台北市中山區北安路759巷6號2樓,25.0861821,121.553094
台北市,中正區,水源里,63000050-001,林全義,台北市中正區羅斯福路4段52巷16弄7號,25.0144655,121.5338088
台北市,中正區,富水里,63000050-002,陳麗真,台北市中正區永春街185-3號,25.0131769,121.5278312
台北市,中正區,文盛里,63000050-003,温紹宏,台北市中正區羅斯福路3段286巷4弄4號,25.015986,121.532084
台北市,中正區,林興里,63000050-004,吳寶燕,台北市中正區水源路21號,25.016941,121.5252995
台北市,中正區,河堤里,63000050-005,鄒士根,台北市中正區金門街11-1號,25.021604,121.5234214
台北市,中正區,頂東里,63000050-006,王曜樹,台北市中正區晉江街112巷2弄6號,25.0224221,121.5246743
台北市,中正區,網溪里,63000050-007,夏萬浪,台北市中正區牯嶺街165號,25.0218637,121.5191644
台北市,中正區,板溪里,63000050-008,黃國輝,台北市中正區汀州路2段151號1樓,25.0246203,121.5209724
台北市,中正區,螢圃里,63000050-009,陳木松,台北市中正區重慶南路3段83巷3號,25.0252959,121.5168302
台北市,中正區,螢雪里,63000050-010,陳文質,台北市中正區福州街59號,25.026715,121.5143621
台北市,中正區,永功里,63000050-011,陳宏明,台北市中正區汀州路1段324號,25.0265256,121.5122248
台北市,中正區,永昌里,63000050-012,陳玟如,台北市中正區汀州路1段242巷5號,25.0271751,121.5101941
台北市,中正區,龍興里,63000050-013,林正晴,台北市中正區三元街156號,25.0280331,121.5107903
台北市,中正區,忠勤里,63000050-014,方荷生,台北市中正區中華路2段303巷14號,25.0294955,121.5053195
台北市,中正區,廈安里,63000050-015,涂光宇,台北市中正區中華路2段175巷24號,25.0305879,121.5048927
台北市,中正區,愛國里,63000050-016,周德潤,台北市中正區延平南路192巷6號,25.0361158,121.5075304
台北市,中正區,南門里,63000050-017,郭有賢,台北市中正區廣州街8巷3弄26號,25.0336354,121.5080678
台北市,中正區,龍光里,63000050-018,陳萬龍,台北市中正區和平西路2段45號,25.0289367,121.512649
台北市,中正區,南福里,63000050-019,許益明,台北市中正區和平西路1段55巷6號,25.0270569,121.519772
台北市,中正區,龍福里,63000050-020,鄭珍珍,台北市中正區牯嶺街35號,25.030369,121.5163481
台北市,中正區,新營里,63000050-021,何國榮,台北市中正區寧波東街16巷2號,25.032802,121.5202663
台北市,中正區,建國里,63000050-022,許瀞尹,台北市中正區衡陽路78號,25.042142,121.511072
台北市,中正區,光復里,63000050-023,王麗美,台北市中正區開封街1段105-2號,25.0460618,121.5101932
台北市,中正區,黎明里,63000050-024,鄭燕宗,台北市中正區忠孝西路1段29巷2號1、2樓,25.046376,121.518837
台北市,中正區,梅花里,63000050-025,吳崑山,台北市中正區紹興北街23號,25.0450632,121.5254333
台北市,中正區,幸福里,63000050-026,蘇宏仁,台北市中正區北平東路24號,25.045897,121.5251074
台北市,中正區,幸市里,63000050-027,林禎吉,台北市中正區新生南路1段54巷18-3號,25.0411947,121.5324618
台北市,中正區,東門里,63000050-028,李世宗,台北市中正區仁愛路1段53號,25.0386364,121.5245469
台北市,中正區,文北里,63000050-029,陳余秀卿,台北市中正區杭州南路1段77巷3號,25.0392227,121.5259648
台北市,中正區,文祥里,63000050-030,李淑珍,台北市中正區金山南路1段100號,25.0357349,121.5273784
台北市,中正區,三愛里,63000050-031,陳仁志,台北市中正區臨沂街75巷19號,25.034751,121.5291308
台北市,大同區,玉泉里,63000060-001,鄭錦泰,台北市大同區南京西路434巷9號2樓,25.0525785,121.5090488
台北市,大同區,建明里,63000060-002,"潘東良
(代理里長)",台北市大同區昌吉街57號4樓,25.0660605,121.5151129
台北市,大同區,建功里,63000060-003,周志賢,台北市大同區重慶北路1段83巷37號,25.0529489,121.5154718
台北市,大同區,建泰里,63000060-004,陳鵬程,台北市大同區承德路1段101號,25.052822,121.5178994
台北市,大同區,永樂里,63000060-005,林宗穎,台北市大同區南京西路239巷31號,25.053761,121.509232
台北市,大同區,朝陽里,63000060-006,呂國維,台北市大同區南京西路167巷3之5號,25.0544799,121.5128151
台北市,大同區,星明里,63000060-007,劉福永,台北市大同區太原路161巷4號,25.0553318,121.5175771
台北市,大同區,光能里,63000060-008,陳靜筠,台北市大同區民生西路92號2樓,25.0574335,121.5200293
台北市,大同區,大有里,63000060-009,許美智,台北市大同區民樂街179號,25.0595106,121.5105974
台北市,大同區,延平里,63000060-010,郭逸斌,台北市大同區甘州街12號,25.0585254,121.5127933
台北市,大同區,雙連里,63000060-011,洪振恒,台北市大同區歸綏街126號,25.0583315,121.5148949
台北市,大同區,南芳里,63000060-012,賴徐玉枝,台北市大同區迪化街1段312巷7號,25.061762,121.5091626
台北市,大同區,民權里,63000060-013,陳玉女,台北市大同區寧夏路131號,25.0607773,121.5144766
台北市,大同區,景星里,63000060-014,吳若屏,台北市大同區伊寧街75巷4號1樓,25.0649287,121.5103052
台北市,大同區,隆和里,63000060-015,沈春華,台北市大同區景化街46號,25.0650578,121.5125801
台北市,大同區,蓬萊里,63000060-016,何英輝,台北市大同區大龍街26號,25.0638299,121.5158942
台北市,大同區,國順里,63000060-017,陳穎慧,台北市大同區延平北路3段124號,25.0675098,121.5107988
台北市,大同區,國慶里,63000060-018,高大陸,台北市大同區民族西路260號,25.0685194,121.5121129
台北市,大同區,揚雅里,63000060-019,吳振明,台北市大同區重慶北路3段113巷56號2樓之2,25.0672093,121.5155609
台北市,大同區,斯文里,63000060-020,江雪卿,台北市大同區承德路3段129巷11號3樓,25.0673667,121.5190541
台北市,大同區,鄰江里,63000060-021,陳豊祥,台北市大同區酒泉街158號,25.0719924,121.511937
台北市,大同區,至聖里,63000060-022,楊秀龍,台北市大同區民族西路169巷38號,25.0698445,121.515372
台北市,大同區,老師里,63000060-024,許宮銘,台北市大同區哈密街158號,25.0727362,121.513107
台北市,大同區,重慶里,63000060-025,張艷鴻,台北市大同區哈密街59巷73弄2號,25.075836,121.5160879
台北市,大同區,保安里,63000060-026,張賦脈,台北市大同區重慶北路3段295巷6號2樓,25.0735789,121.5141402
台北市,萬華區,福星里,63000070-001,李黃玉根,台北市萬華區西寧南路14之3號1樓,25.045598,121.506371
台北市,萬華區,萬壽里,63000070-002,吳美玟,台北市萬華區峨眉街137號2樓,25.0448184,121.5019035
台北市,萬華區,西門里,63000070-003,葉敏惠,台北市萬華區西寧南路90巷15號,25.0422216,121.5054303
台北市,萬華區,新起里,63000070-004,陳鴻祥,台北市萬華區貴陽街2段87號1樓,25.039892,121.5037977
台北市,萬華區,菜園里,63000070-005,蔡蕙而,台北市萬華區內江街150號,25.0416733,121.5014942
台北市,萬華區,青山里,63000070-006,李昭成,台北市萬華區華西街21巷9號,25.038767,121.4989709
台北市,萬華區,富民里,63000070-007,范添成,台北市萬華區康定路160號,25.0395488,121.5017868
台北市,萬華區,福音里,63000070-008,蔡岳樺,台北市萬華區永福街77號,25.0389152,121.5027286
台北市,萬華區,仁德里,63000070-009,許淑惠,台北市萬華區西寧南路192-3號1樓,25.0390843,121.5061598
台北市,萬華區,富福里,63000070-010,許文輝,台北市萬華區和平西路3段30巷臨5-1號,25.034069,121.504096
台北市,萬華區,頂碩里,63000070-011,李智聰,台北市萬華區莒光路112巷8號,25.0316264,121.5037316
台北市,萬華區,雙園里,63000070-012,許惠城,台北市萬華區萬大路96號,25.0302401,121.5003846
台北市,萬華區,新忠里,63000070-013,邱文龍,台北市萬華區西藏路125巷7之2號,25.0285235,121.5025237
台北市,萬華區,新和里,63000070-014,邱惠雯,台北市萬華區中華路2段416巷13之1號,25.0269705,121.5040617
台北市,萬華區,糖廍里,63000070-015,葉玲瑜,台北市萬華區大理街106號1樓,25.0341979,121.4978825
台北市,萬華區,和平里,63000070-016,吳淑芬,台北市萬華區艋舺大道362號,25.0321625,121.4954636
台北市,萬華區,綠堤里,63000070-017,邱郁惠,台北市萬華區雙園街122巷14號,25.0309794,121.4920686
台北市,萬華區,華江里,63000070-018,楊華中,台北市萬華區環河南路2段170號,25.0349533,121.4937982
台北市,萬華區,柳鄉里,63000070-019,蔡和益,台北市萬華區桂林路242巷42號之1,25.0369316,121.4942645
台北市,萬華區,日善里,63000070-020,蕭進德,台北市萬華區萬大路186巷2弄11號,25.0282413,121.5001039
台北市,萬華區,新安里,63000070-021,郭正中,台北市萬華區萬大路187巷1弄9號,25.0282376,121.5008484
台北市,萬華區,忠德里,63000070-022,施育婷,台北市萬華區東園街66巷24弄8號,25.0247732,121.4954375
台北市,萬華區,孝德里,63000070-023,李明芬,台北市萬華區德昌街261巷16號,25.022452,121.492269
台北市,萬華區,和德里,63000070-024,洪天化,台北市萬華區西園路2段372巷10號,25.0253136,121.491103
台北市,萬華區,錦德里,63000070-025,洪秀枝,台北市萬華區寶興街80巷18號,25.02575,121.493913
台北市,萬華區,全德里,63000070-026,王平三,台北市萬華區德昌街10巷8號,25.0256768,121.4998518
台北市,萬華區,保德里,63000070-027,楊美女,台北市萬華區東園街154巷9弄2號,25.0228382,121.4970721
台北市,萬華區,銘德里,63000070-028,吳啟源,台北市萬華區長泰街219號1樓,25.0215669,121.4952062
台北市,萬華區,榮德里,63000070-029,陳欣漢,台北市萬華區武成街80巷61號,25.0205608,121.4951171
台北市,萬華區,壽德里,63000070-030,蔡素麗,台北市萬華區萬大路329巷25號,25.023757,121.5010783
台北市,萬華區,興德里,63000070-031,吳政侑,台北市萬華區萬大路449巷28弄7號,25.0200069,121.4992849
台北市,萬華區,華中里,63000070-032,黃世豪,台北市萬華區萬大路534巷42號,25.019325,121.495573
台北市,萬華區,日祥里,63000070-033,鍾 駿,台北市萬華區青年路172號,25.020816,121.5027033
台北市,萬華區,忠貞里,63000070-034,林錫祺,台北市萬華區萬大路277巷44弄1-3號,25.0249219,121.5022648
台北市,萬華區,凌霄里,63000070-035,游秋蓮,台北市萬華區中華路2段504巷20號1樓,25.0252985,121.5077859
台北市,萬華區,騰雲里,63000070-036,李重華,台北市萬華區國興路1巷2之4號,25.0242964,121.5088074
台北市,文山區,景行里,63000080-001,劉竹英,台北市文山區景興路218之1號,24.9921939,121.544175
台北市,文山區,景東里,63000080-002,高鳳謙,台北市文山區景興路153巷1號,24.9938497,121.5449868
台北市,文山區,景美里,63000080-003,林賢錡,台北市文山區景美里育英街57巷13號1樓,24.992344,121.538043
台北市,文山區,景慶里,63000080-004,黃逢廣,台北市文山區景福街155號1樓,24.995439,121.536703
台北市,文山區,景仁里,63000080-005,何進輝,台北市文山區景福街21巷3弄11號,24.9990348,121.5391962
台北市,文山區,景華里,63000080-006,黃培堯,台北市文山區景華街22巷16號1樓,24.993722,121.542239
台北市,文山區,萬有里,63000080-007,陳高美美,台北市文山區羅斯福路6段139號,24.997638,121.5409189
台北市,文山區,萬祥里,63000080-008,張紅木,台北市文山區羅斯福路5段255號1樓,25.001375,121.539569
台北市,文山區,萬隆里,63000080-009,林宗弘,台北市文山區萬隆街25號,25.0002317,121.5380435
台北市,文山區,萬年里,63000080-010,邱秋芳,台北市文山區羅斯福路5段150巷35號1樓,25.0063901,121.538104
台北市,文山區,萬和里,63000080-011,吳祚榮,台北市文山區溪洲街12號5樓之10,25.0061897,121.5347356
台北市,文山區,萬盛里,63000080-012,徐福進,台北市文山區羅斯福路5段127號7樓,25.0046709,121.5391653
台北市,文山區,興豐里,63000080-013,余鴻儒,台北市文山區興隆路1段229巷2號2樓,25.0001839,121.5440852
台北市,文山區,興光里,63000080-014,洪正平,台北市文山區興隆路3段79巷18號,25.0001095,121.5567028
台北市,文山區,興家里,63000080-015,劉宗勳,台北市文山區興隆路3段223-2號1樓,24.9939326,121.5595183
台北市,文山區,興得里,63000080-016,黃細福,台北市文山區興隆路3段112巷2弄10號地下室,24.9992523,121.5569279
台北市,文山區,興業里,63000080-017,凌錦成,台北市文山區興隆路2段160號10樓,25.0015959,121.5514261
台北市,文山區,興安里,63000080-018,陳啟東,台北市文山區興隆路2段96巷85號,24.9978891,121.5510928
台北市,文山區,興福里,63000080-019,許銘良,台北市文山區興隆路2段22巷9弄5號1樓,24.997701,121.546154
台北市,文山區,興旺里,63000080-020,陳忠榮,台北市文山區福興路27號,25.0028153,121.5510643
台北市,文山區,興泰里,63000080-021,鍾譯樂,台北市文山區辛亥路4段252巷5號1樓,25.0014893,121.5541948
台北市,文山區,興昌里,63000080-022,吳融昊,台北市文山區辛亥路4段101巷85-8號1樓,25.0065539,121.559691
台北市,文山區,試院里,63000080-023,廖欽銅,台北市文山區和興路5號,24.986404,121.546179
台北市,文山區,華興里,63000080-024,陳峙穎,台北市文山區木柵路1段264號,24.987956,121.554476
台北市,文山區,明義里,63000080-025,仇世屏,台北市文山區木柵路2段7巷7號1樓,24.9889484,121.5590826
台北市,文山區,明興里,63000080-026,鄢健民,台北市文山區木柵路2段109巷25弄6號,24.990145,121.562851
台北市,文山區,木柵里,63000080-027,高銘傳,台北市文山區保儀路26巷11號之1,24.9883199,121.5678302
台北市,文山區,木新里,63000080-028,鄭明通,台北市文山區永安街22巷18號,24.986882,121.569611
台北市,文山區,順興里,63000080-029,楊培釧,台北市文山區興隆路4段165巷50號1樓,24.9842783,121.5640793
台北市,文山區,樟林里,63000080-030,陳文乾,台北市文山區興隆路4段66巷32號1樓,24.9847239,121.5601083
台北市,文山區,樟新里,63000080-031,歐陽禾英,台北市文山區一壽街22號9樓教室二,24.9797442,121.5564823
台北市,文山區,樟腳里,63000080-032,高林玉嬌,台北市文山區恆光街45號7樓,24.9824043,121.5672982
台北市,文山區,萬芳里,63000080-033,陳姿秀,台北市文山區萬美街1段51號3樓,25.0021799,121.5684884
台北市,文山區,博嘉里,63000080-034,吳坤輝,台北市文山區木柵路4段157-1號1樓,24.99974,121.575449
台北市,文山區,萬興里,63000080-035,詹晉鑒,台北市文山區秀明路2段112巷14號1樓,24.990421,121.575897
台北市,文山區,指南里,63000080-036,張佳南,台北市文山區指南路3段33巷34號1樓,24.984468,121.580417
台北市,文山區,老泉里,63000080-037,高進來,台北市文山區老泉街26巷1-2號,24.97521,121.560349
台北市,文山區,忠順里,63000080-038,曾寧旖,台北市文山區興隆路4段145巷30號1樓,24.985098,121.5629575
台北市,文山區,萬美里,63000080-039,鄧瑞興,台北市文山區萬美街2段2巷6號,25.0031032,121.5622139
台北市,文山區,政大里,63000080-040,劉俊奇,台北市文山區政大一街5號1樓,24.9857859,121.5798928
台北市,文山區,樟文里,63000080-041,林淑珠,台北市文山區木新路3段278巷7弄6號1樓,24.9817534,121.5575401
台北市,文山區,興邦里,63000080-042,張朝雄,台北市文山區興隆路2段203巷2弄10號,25.0011847,121.5496285
台北市,文山區,樟樹里,63000080-043,陳再炯,台北市文山區興隆路4段74巷22號1樓,24.9839333,121.5606935
台北市,南港區,南港里,63000090-001,李志錦,台北市南港區南港路1段227號,25.0554861,121.6121105
台北市,南港區,中南里,63000090-002,詹坤隆,台北市南港區中南街123巷3號,25.052165,121.615605
台北市,南港區,新富里,63000090-003,許睦燦,台北市南港區富康街59號,25.0522201,121.6171917
台北市,南港區,三重里,63000090-004,江輝吉,台北市南港區重陽路504巷1弄9號,25.0608758,121.6125276
台北市,南港區,東新里,63000090-005,蕭漢榮,台北市南港區興南街43號1樓,25.0562423,121.6013233
台北市,南港區,新光里,63000090-006,龔睿堉,台北市南港區昆陽街140巷42弄4號1樓,25.049344,121.5924369
台北市,南港區,東明里,63000090-007,曾漢祺,台北市南港區南港路2段128號1樓,25.0536144,121.6015707
台北市,南港區,西新里,63000090-008,"蔡慧貞
(代理里長)",台北市南港區南港路3段27號,25.0537423,121.5913702
台北市,南港區,玉成里,63000090-009,黃聰智,台北市南港區南港路3段314巷5號,25.0519729,121.5812127
台北市,南港區,合成里,63000090-010,巫永仁,台北市南港區忠孝東路6段225巷1弄3號,25.0495906,121.588346
台北市,南港區,成福里,63000090-011,卜學明,台北市南港區成福路159號,25.0412934,121.5881885
台北市,南港區,萬福里,63000090-012,林建華,台北市南港區忠孝東路6段70巷21弄8號1樓,25.0459908,121.5848152
台北市,南港區,鴻福里,63000090-013,劉明康,台北市南港區成福路82號,25.0438685,121.586507
台北市,南港區,百福里,63000090-014,李雯馨,台北市南港區成福路170號3樓之5,25.041539,121.587619
台北市,南港區,聯成里,63000090-015,鮑黎登,台北市南港區東新街89巷1弄19號,25.0474583,121.5896442
台北市,南港區,舊莊里,63000090-016,張瑞芳,台北市南港區舊莊街1段91巷11號1樓,25.041307,121.6194827
台北市,南港區,中研里,63000090-017,謝志勇,台北市南港區研究院路2段2巷2號,25.0486919,121.6128823
台北市,南港區,九如里,63000090-018,蘇國賢,台北市南港區研究院路3段157之1號,25.0339797,121.6134894
台北市,南港區,仁福里,63000090-019,吳肇輝,台北市南港區福德街443號1樓,25.0396522,121.5926179
台北市,南港區,重陽里,63000090-020,馬敬忠,台北市南港區重陽路199巷24之2號1樓,25.057699,121.5999156
台北市,內湖區,西湖里,63000100-001,林正雄,台北市內湖區內湖路1段323巷8弄4號1樓,25.0824974,121.56772
台北市,內湖區,西康里,63000100-002,王興國,台北市內湖區內湖路1段61巷2號,25.0851332,121.5603195
台北市,內湖區,西安里,63000100-003,李國榮,台北市內湖區內湖路1段91巷110號,25.0878646,121.56287
台北市,內湖區,港墘里,63000100-005,魏景城,台北市內湖區港墘路127巷12號,25.0778418,121.5770278
台北市,內湖區,港都里,63000100-006,江水龍,台北市內湖區內湖路1段629巷47號,25.0804999,121.5744831
台北市,內湖區,港富里,63000100-007,李安邦,台北市內湖區麗山街47號,25.0808877,121.5806316
台北市,內湖區,港華里,63000100-008,劉達逢,台北市內湖區港華街51巷3弄1號1樓,25.0834241,121.5757966
台北市,內湖區,內湖里,63000100-009,許昌華,台北市內湖區內湖路2段355巷21號2樓,25.0838208,121.5918038
台北市,內湖區,湖濱里,63000100-010,陳尤雪,台北市內湖區內湖路2段346號,25.0818679,121.5899986
台北市,內湖區,紫星里,63000100-011,謝佳惠,台北市內湖區成功路3段187巷3弄4號,25.0799905,121.5911215
台北市,內湖區,大湖里,63000100-012,郭坤祥,台北市內湖區大湖山莊街117號3樓,25.0860699,121.60178
台北市,內湖區,金龍里,63000100-013,鄭允強,台北市內湖區金龍路67巷7號,25.0857632,121.5929768
台北市,內湖區,金瑞里,63000100-014,羅世甫,台北市內湖區金龍路218號1樓,25.0880665,121.5868837
台北市,內湖區,碧山里,63000100-015,呂之杞,台北市內湖區內湖路3段60巷10弄5號,25.0879956,121.5919968
台北市,內湖區,紫雲里,63000100-016,夏亦芳,台北市內湖區康寧路1段190號,25.0786572,121.5949833
台北市,內湖區,清白里,63000100-017,陳東源,台北市內湖區星雲街208號,25.0809421,121.5969957
台北市,內湖區,葫洲里,63000100-018,曾宏昌,台北市內湖區民權東路6段280巷60號,25.070464,121.607865
台北市,內湖區,紫陽里,63000100-019,謝源德,台北市內湖區文德路210巷30弄27號,25.07706,121.5847753
台北市,內湖區,瑞陽里,63000100-020,江光輝,台北市內湖區文德路66巷69弄9號1樓,25.0763219,121.5824347
台北市,內湖區,瑞光里,63000100-021,黃崇賢,台北市內湖區陽光街291號,25.0739481,121.5797978
台北市,內湖區,五分里,63000100-022,王海枝,台北市內湖區安康路388號,25.0658807,121.6133935
台北市,內湖區,東湖里,63000100-023,蔡麗美,台北市內湖區康樂街72巷17弄105號1樓,25.0712389,121.6167032
台北市,內湖區,樂康里,63000100-024,張碧玉,台北市內湖區康樂街136巷15弄4號,25.0721147,121.6183627
台北市,內湖區,內溝里,63000100-025,王曉芳,台北市內湖區康樂街201巷8號,25.0756867,121.621726
台北市,內湖區,週美里,63000100-026,丘麗玲,台北市內湖區新明路300號之4,25.0556957,121.582037
台北市,內湖區,行善里,63000100-027,沈茂松,台北市內湖區新明路520號,25.0532913,121.5773302
台北市,內湖區,石潭里,63000100-028,廖煒國,台北市內湖區成功路2段1號,25.0636091,121.5905708
台北市,內湖區,湖興里,63000100-029,蔡穎峰,台北市內湖區成功路2段320巷25號,25.067723,121.5895566
台北市,內湖區,湖元里,63000100-030,林明源,台北市內湖區民權東路6段136巷48號,25.0665616,121.5875793
台北市,內湖區,安湖里,63000100-031,尤樹旺,台北市內湖區東湖路113巷95弄166號1樓,25.0695049,121.614483
台北市,內湖區,秀湖里,63000100-032,謝明毅,台北市內湖區成功路4段323巷16號,25.0840523,121.5993946
台北市,內湖區,安泰里,63000100-033,何素蓮,台北市內湖區安泰街49巷1號1樓,25.0740793,121.6176432
台北市,內湖區,金湖里,63000100-034,邱金波,台北市內湖區成功路5段71號,25.074132,121.605772
台北市,內湖區,康寧里,63000100-035,鄭秀鳳,台北市內湖區康寧路3段99巷39弄70號,25.074331,121.610624
台北市,內湖區,明湖里,63000100-036,何應賢,台北市內湖區康寧路3段99巷25號,25.0723078,121.6101339
台北市,內湖區,蘆洲里,63000100-037,陳明霖,台北市內湖區安康路95號,25.0622912,121.597398
台北市,內湖區,麗山里,63000100-038,許明全,台北市內湖區內湖路1段411巷78號,25.084112,121.571727
台北市,內湖區,寶湖里,63000100-039,邱顯松,台北市內湖區民權東路6段208號,25.0675708,121.596956
台北市,內湖區,南湖里,63000100-040,洪宜河,台北市內湖區康寧路3段56巷130號,25.0682934,121.6089519
台北市,士林區,仁勇里,63000110-001,洪銘鎮,台北市士林區大東路63號2樓,25.09013,121.5254773
台北市,士林區,義信里,63000110-002,陳中和,台北市士林區基河路132號地下1樓,25.0890836,121.5227621
台北市,士林區,福林里,63000110-003,江美珠,台北市士林區中正路187巷26號,25.0947156,121.5273827
台北市,士林區,福德里,63000110-004,楊錦宗,台北市士林區文林路398號2樓,25.0937945,121.5250885
台北市,士林區,福志里,63000110-005,邱邱田,台北市士林區雨農路49巷2號,25.0995366,121.5321703
台北市,士林區,舊佳里,63000110-006,陳明松,台北市士林區鄰前街58號,25.0975741,121.525944
台北市,士林區,福佳里,63000110-007,胡剛毅,台北市士林區文昌路149號3樓,25.0975852,121.5204205
台北市,士林區,後港里,63000110-008,紀建漢,台北市士林區大南路423號,25.090412,121.516255
台北市,士林區,福中里,63000110-009,王德利,台北市士林區通河東街1段124巷6弄16號1樓,25.0859919,121.5163073
台北市,士林區,前港里,63000110-010,陳瑞華,台北市士林區大南路251巷18號1樓,25.0878303,121.5200751
台北市,士林區,百齡里,63000110-011,翁淑穎,台北市士林區福港街259巷13弄10號1樓,25.08434,121.5185034
台北市,士林區,承德里,63000110-012,陳洲平,台北市士林區劍潭路80號,25.0828072,121.5206301
台北市,士林區,福華里,63000110-013,楊小莉,台北市士林區和豐街36號1樓,25.0827186,121.5179397
台北市,士林區,明勝里,63000110-014,張永棟,台北市士林區承德路4段5之1號,25.089167,121.518727
台北市,士林區,福順里,63000110-015,林家卉,台北市士林區延平北路5段136巷24號,25.0821574,121.5114389
台北市,士林區,富光里,63000110-016,高毓紋,台北市士林區葫蘆街62號1樓,25.080865,121.5087646
台北市,士林區,葫蘆里,63000110-017,許振禮,台北市士林區葫蘆街137號1樓,25.0838446,121.5086075
台北市,士林區,葫東里,63000110-018,郭淑玲,台北市士林區重慶北路4段215號,25.0850481,121.511092
台北市,士林區,社子里,63000110-019,陳明雄,台北市士林區社正路11號2樓,25.0884832,121.5089953
台北市,士林區,社新里,63000110-020,林德隆,台北市士林區社子街78號,25.0873419,121.5065413
台北市,士林區,社園里,63000110-021,陳飛熊,台北市士林區社中街279號,25.0917799,121.5063592
台北市,士林區,永倫里,63000110-022,宋旭曜,台北市士林區社中街446號,25.0915215,121.5020331
台北市,士林區,福安里,63000110-023,謝文加,台北市士林區延平北路7段107巷10號,25.0966491,121.4944236
台北市,士林區,富洲里,63000110-024,陳惠民,台北市士林區延平北路8段109號,25.1058461,121.4833845
台北市,士林區,岩山里,63000110-025,鄭小塔,台北市士林區芝玉路1段197巷1號,25.1075269,121.5334271
台北市,士林區,名山里,63000110-026,薛群秀,台北市士林區雨聲街68號（芝山岩區民活動中心）,25.1036906,121.5287734
台北市,士林區,德行里,63000110-027,張僡美,台北市士林區德行西路30號,25.1055217,121.5233515
台北市,士林區,德華里,63000110-028,林生賢,台北市士林區文昌路229號,25.1003778,121.5202518
台北市,士林區,聖山里,63000110-029,吳三勇,台北市士林區芝玉路1段223巷4號1樓,25.108982,121.5335307
台北市,士林區,忠誠里,63000110-030,曾坤來,台北市士林區德行東路74巷15弄1號1樓,25.106702,121.527539
台北市,士林區,芝山里,63000110-031,魏雅郁,台北市士林區德行東路308號,25.1100804,121.5367085
台北市,士林區,東山里,63000110-032,陳文賢,台北市士林區士東路320巷2號,25.113504,121.538604
台北市,士林區,三玉里,63000110-033,羅志傑,台北市士林區士東路200巷62號,25.1105389,121.5339061
台北市,士林區,蘭雅里,63000110-034,萬天榮,台北市士林區德行東路109巷63弄9號1樓,25.109578,121.5278364
台北市,士林區,蘭興里,63000110-035,林文龍,台北市士林區福華路180號2樓,25.1058409,121.5220789
台北市,士林區,天福里,63000110-036,江啟南,台北市士林區天母東路8巷31弄6號1樓,25.1166642,121.5320167
台北市,士林區,天祿里,63000110-037,李錦琿,台北市士林區中山北路6段728巷8號1樓,25.114673,121.5280932
台北市,士林區,天壽里,63000110-038,陳伯同,台北市士林區中山北路6段405巷50號2樓,25.1153196,121.5266987
台北市,士林區,天和里,63000110-039,莊福來,台北市士林區中山北路7段154巷6號4樓(天母區民活動中心),25.1239562,121.5331023
台北市,士林區,天山里,63000110-040,陳永鴻,台北市士林區中山北路7段154巷6號4樓(天母區民活動中心),25.1239562,121.5331023
台北市,士林區,天玉里,63000110-041,潘錦雄,台北市士林區天母北路9巷6號1樓,25.119089,121.5267678
台北市,士林區,天母里,63000110-042,李陳菜蓮,台北市士林區中山北路7段191巷23號,25.125457,121.531086
台北市,士林區,永福里,63000110-043,林國柱,台北市士林區莊頂路113號隔壁,25.1104265,121.5528414
台北市,士林區,公館里,63000110-044,葉進財,台北市士林區永公路412號之1,25.126239,121.564854
台北市,士林區,新安里,63000110-045,何吳素梅,台北市士林區仰德大道3段44巷1號,25.11798,121.552584
台北市,士林區,陽明里,63000110-046,黃裕倉,台北市士林區菁山路34巷1號,25.1380645,121.5473046
台北市,士林區,菁山里,63000110-047,何勝男,台北市士林區菁山路101巷15弄22號,25.1447046,121.5567669
台北市,士林區,平等里,63000110-048,徐明忠,台北市士林區平菁街106巷18號,25.1302612,121.57457
台北市,士林區,溪山里,63000110-049,黃慧芬,台北市士林區至善路3段258號旁,25.1190698,121.5837782
台北市,士林區,翠山里,63000110-050,王禮騏,台北市士林區中社路1段36巷2之1號,25.109063,121.559858
台北市,士林區,臨溪里,63000110-051,郭肇富,台北市士林區至善路2段149號,25.0990339,121.547813
台北市,北投區,建民里,63000120-001,黃志立,台北市北投區文林北路80巷38弄2號1樓,25.1056999,121.5188619
台北市,北投區,文林里,63000120-002,劉憲昌,台北市北投區致遠一路1段9號1樓,25.1076517,121.517342
台北市,北投區,石牌里,63000120-003,洪美惠,台北市北投區建民路116巷13號1樓,25.109847,121.517884
台北市,北投區,福興里,63000120-004,蔡柳池,台北市北投區自強街21號1樓,25.1102815,121.5127203
台北市,北投區,榮光里,63000120-005,蘇寶鈴,台北市北投區石牌路1段166巷43弄15號,25.1126143,121.5095241
台北市,北投區,榮華里,63000120-006,何漢清,台北市北投區明德路136巷16號,25.1097407,121.5212236
台北市,北投區,裕民里,63000120-007,莊振寧,台北市北投區懷德街14巷17號1樓,25.1115098,121.5201809
台北市,北投區,振華里,63000120-008,郭崇儀,台北市北投區裕民一路40巷37號1樓,25.1152036,121.5177436
台北市,北投區,永和里,63000120-009,曾富榆,台北市北投區行義路63號,25.1262367,121.5279495
台北市,北投區,永欣里,63000120-010,潘萬生,台北市北投區石牌路2段334-1號,25.1224826,121.5244639
台北市,北投區,永明里,63000120-011,何麗玲,台北市北投區義理街65號1樓,25.1174626,121.5157178
台北市,北投區,東華里,63000120-012,袁大祥,台北市北投區致遠三路158號2樓,25.1218692,121.5092112
台北市,北投區,吉利里,63000120-013,劉序剛,台北市北投區石牌路1段39巷120弄7號,25.1126143,121.5095241
台北市,北投區,吉慶里,63000120-014,黃勝宗,台北市北投區致遠二路61巷2-2號,25.1149658,121.5114263
台北市,北投區,尊賢里,63000120-015,潘同發,台北市北投區尊賢街206巷1號,25.1155068,121.5084014
台北市,北投區,立賢里,63000120-016,邱福銀,台北市北投區尊賢街249巷23號,25.1172625,121.5056896
台北市,北投區,立農里,63000120-017,潘建榮,台北市北投區立農街1段319號,25.1195858,121.5068587
台北市,北投區,八仙里,63000120-018,黃永清,台北市北投區北投路1段臨20號,25.1229626,121.5014864
台北市,北投區,洲美里,63000120-019,蘇府庭,台北市北投區福美路203號,25.1002938,121.5051403
台北市,北投區,奇岩里,63000120-020,賴進利,台北市北投區公舘路249之1號,25.1260278,121.508265
台北市,北投區,清江里,63000120-021,李炳廉,台北市北投區清江路201號,25.1275445,121.5020289
台北市,北投區,中央里,63000120-022,陳國樑,台北市北投區北投路1段93巷3號,25.1296068,121.4997524
台北市,北投區,長安里,63000120-023,陳章生,台北市北投區育仁路111巷9號,25.1354151,121.4996464
台北市,北投區,大同里,63000120-024,黃澤雙,台北市北投區大同街69號,25.133541,121.498543
台北市,北投區,溫泉里,63000120-025,許智全,台北市北投區溫泉路68巷6弄15之2號,25.1339,121.505412
台北市,北投區,林泉里,63000120-026,陳惠華,台北市北投區中山路5-7號2樓,25.1379314,121.510097
台北市,北投區,中心里,63000120-027,陳力彰,台北市北投區珠海路15號,25.1379469,121.5019657
台北市,北投區,中庸里,63000120-028,許世傳,台北市北投區永興路1段12號,25.1388027,121.4996428
台北市,北投區,開明里,63000120-029,左麗芳,台北市北投區永興路2段8號,25.139828,121.50144
台北市,北投區,中和里,63000120-030,黃景煌,台北市北投區中和街365號,25.142026,121.498772
台北市,北投區,智仁里,63000120-031,傅書淵,台北市北投區杏林二路74巷3號,25.142925,121.495911
台北市,北投區,秀山里,63000120-032,陳壽彭,台北市北投區中和街502巷2弄15號,25.1455835,121.4949421
台北市,北投區,文化里,63000120-033,周世英,台北市北投區文化三路55號1樓,25.1392332,121.4980644
台北市,北投區,豐年里,63000120-034,周江雪珠,台北市北投區中央北路2段95巷1弄1號,25.1365399,121.4952141
台北市,北投區,稻香里,63000120-035,張義博,台北市北投區中央北路2段350巷92號,25.1395084,121.4884192
台北市,北投區,桃源里,63000120-036,陳仲宏,台北市北投區新興路158巷17號1樓,25.1388753,121.4860654
台北市,北投區,一德里,63000120-037,黃玉樹,台北市北投區中央北路4段538號2樓,25.1282277,121.4675879
台北市,北投區,關渡里,63000120-038,許瑩珠,台北市北投區關渡路90號1樓,25.118642,121.468816
台北市,北投區,泉源里,63000120-039,陳志成,台北市北投區泉源路242號,25.1479453,121.5307525
台北市,北投區,湖山里,63000120-040,李秋霞,台北市北投區湖山路1段48之2號,25.1545157,121.5395091
台北市,北投區,大屯里,63000120-041,張天恩,台北市北投區復興三路521巷18號,25.1597156,121.4999096
台北市,北投區,湖田里,63000120-042,曹昌正,台北市北投區竹子湖路35-1號,25.1717294,121.5333971
新北市,板橋區,留侯里,65000010-001,黃承亮,新北市板橋區留侯里福德街2巷5號2樓,25.0090501,121.4559115
新北市,板橋區,流芳里,65000010-002,陳建雄,新北市板橋區流芳里大東街26號,25.0089108,121.4563613
新北市,板橋區,赤松里,65000010-003,林文傑,新北市板橋區後菜園街53號,25.0098439,121.455741
新北市,板橋區,黃石里,65000010-004,吳聰榮,新北市板橋區黃石里宮口街15號,25.009988,121.4573649
新北市,板橋區,挹秀里,65000010-005,王添福,新北市板橋區挹秀里文化路一段46巷33號4樓,25.0111025,121.460955
新北市,板橋區,湳興里,65000010-006,洪登賢,新北市板橋區湳興里南雅西路1段10巷15號1樓,25.0049806,121.4544502
新北市,板橋區,新興里,65000010-007,羅朝慶,新北市板橋區南興路1號,25.0080782,121.455336
新北市,板橋區,社後里,65000010-008,莊晉貴,新北市板橋區中正路269巷7號,25.0185141,121.4552442
新北市,板橋區,香社里,65000010-009,林勝隆,新北市板橋區大勇街55號1樓,25.0168603,121.4539694
新北市,板橋區,中正里,65000010-010,林煌益,新北市板橋區中正里中正路433巷29號2樓,25.0236007,121.4531248
新北市,板橋區,自強里,65000010-011,張雪嬰,新北市板橋區自強里中正路25巷3號,25.012693,121.45529
新北市,板橋區,自立里,65000010-012,呂建同,新北市板橋區自立里南雅西路2段196號1樓,25.0146701,121.4518432
新北市,板橋區,光華里,65000010-013,周秀美,新北市板橋區光華里西門街18-5號,25.011265,121.454456
新北市,板橋區,國光里,65000010-014,陳素珍,新北市板橋區國光里國光路43號5樓,25.0178503,121.4576715
新北市,板橋區,港尾里,65000010-015,沈志謙,新北市板橋區瑞安街48號1樓,25.0218472,121.4551502
新北市,板橋區,金華里,65000010-016,洪宗信,新北市板橋區金華里金華街10巷48弄71號1樓,25.0204262,121.4595709
新北市,板橋區,港德里,65000010-017,江堡寬,新北市板橋區港德里中正路250巷101號,25.0201859,121.4598598
新北市,板橋區,民權里,65000010-018,周碩財,新北市板橋區民權里民權路202巷15弄18號4樓,25.016404,121.459999
新北市,板橋區,建國里,65000010-019,李金城,新北市板橋區建國街58號1樓,25.0170938,121.4589036
新北市,板橋區,漢生里,65000010-020,蕭水文,新北市板橋區漢生里公館街96號1樓,25.016686,121.4613286
新北市,板橋區,公舘里,65000010-021,陳黃逽,新北市板橋區幸福路27號2樓,25.0202187,121.4617517
新北市,板橋區,新民里,65000010-022,陳志煌,新北市板橋區新民里漢生東路43巷2號1樓,25.0169042,121.4658503
新北市,板橋區,幸福里,65000010-023,吳朝琦,新北市板橋區幸福路32巷2弄3號3樓,25.02087,121.461692
新北市,板橋區,忠誠里,65000010-024,陳玉蘭,新北市板橋區陽明街29巷1弄20號,25.021999,121.464368
新北市,板橋區,百壽里,65000010-025,林華偉,新北市板橋區文化路1段188巷9弄88號,25.018963,121.469056
新北市,板橋區,介壽里,65000010-026,李昆晏,新北市板橋區文化路1段270巷3弄15號2樓,25.0210852,121.4669775
新北市,板橋區,新埔里,65000010-027,陳芷庭,新北市板橋區文化路1段435巷31弄3號,25.023059,121.467031
新北市,板橋區,華江里,65000010-028,黃發達,新北市板橋區華江里民生路2段226巷17弄9號1樓,25.021944,121.470099
新北市,板橋區,江翠里,65000010-029,蔡明輝,新北市板橋區吳鳳街48號,25.0114095,121.4618415
新北市,板橋區,純翠里,65000010-030,禇仁德,新北市板橋區純翠里光武街110巷42號,25.0300341,121.4670607
新北市,板橋區,溪頭里,65000010-031,郭東勝,新北市板橋區溪頭里長江路2段215號9樓,25.0325008,121.4679332
新北市,板橋區,聯翠里,65000010-032,吳麗梅,新北市板橋區光武街14號2樓,25.025251,121.4679541
新北市,板橋區,宏翠里,65000010-033,黃一晉,新北市板橋區長江路1段156巷9弄5號3樓,25.030185,121.461557
新北市,板橋區,仁翠里,65000010-034,陳金泉,新北市板橋區仁翠里裕民街76巷14號,25.0288672,121.4605394
新北市,板橋區,新翠里,65000010-035,陳水杉,新北市板橋區新翠里雨農路5之1號4樓,25.024728,121.462627
新北市,板橋區,吉翠里,65000010-036,陳清玉,新北市板橋區吉翠里裕民街94巷1弄3號,25.0281998,121.4599505
新北市,板橋區,德翠里,65000010-037,張耀仁,新北市板橋區德翠里龍泉街54巷7弄5號,25.0264667,121.4566889
新北市,板橋區,滿翠里,65000010-038,林重光,新北市板橋區滿翠里四維路266巷5弄16號1樓,25.029058,121.4636661
新北市,板橋區,明翠里,65000010-039,沈德發,新北市板橋區明翠里四維路168號1樓,25.0261608,121.464813
新北市,板橋區,松翠里,65000010-040,林阿萬,新北市板橋區松柏街15巷5號,25.0298989,121.4739752
新北市,板橋區,柏翠里,65000010-041,林陳秀菊,新北市板橋區柏翠里文化路2段369巷26號1樓,25.0317052,121.4724725
新北市,板橋區,龍翠里,65000010-042,張振發,新北市板橋區龍翠里大同街9號,25.026998,121.477035
新北市,板橋區,華翠里,65000010-043,洪燕美,新北市板橋區莒光路84號,25.0240219,121.4717325
新北市,板橋區,忠翠里,65000010-044,張慎芝,新北市板橋區雙十路2段145號6樓,25.027899,121.474694
新北市,板橋區,嵐翠里,65000010-045,林彥綱,新北市板橋區文聖街55號,25.0313057,121.4766662
新北市,板橋區,文翠里,65000010-046,王永源,新北市板橋區文聖街11巷10號1樓,25.032554,121.4758577
新北市,板橋區,青翠里,65000010-047,林森照,新北市板橋區民治街51巷2號,25.0336463,121.4794313
新北市,板橋區,懷翠里,65000010-048,胡朝賢,新北市板橋區民治街61巷25號2樓,25.03355,121.4804175
新北市,板橋區,福翠里,65000010-049,陳嘉生,新北市板橋區福翠里田單街49巷1弄6號,25.0285917,121.4828734
新北市,板橋區,港嘴里,65000010-050,林宗賢,新北市板橋區縣民大道3段169號,25.0245919,121.4792499
新北市,板橋區,振興里,65000010-051,黃清順,新北市板橋區振興里三民路1段31巷91弄4號,25.0235084,121.4816831
新北市,板橋區,振義里,65000010-052,邱三益,新北市板橋區萬安街53巷17號5樓,25.0232538,121.4831765
新北市,板橋區,光復里,65000010-053,吳建和,新北市板橋區光復街210號,25.0204532,121.4855092
新北市,板橋區,埔墘里,65000010-054,曾啟瑜,新北市板橋區埔墘里中山路2段416巷38弄26號,25.0198342,121.4821111
新北市,板橋區,長壽里,65000010-055,李俊中,新北市板橋區長壽里三民路2段109巷12號,25.015922,121.4799655
新北市,板橋區,福壽里,65000010-056,許明順,新北市板橋區福壽里三民路2段204之4號4樓,25.0122783,121.4787705
新北市,板橋區,海山里,65000010-057,洪正明,新北市板橋區海山里長安街212號,25.0121094,121.4746689
新北市,板橋區,九如里,65000010-058,李建重,新北市板橋區九如里三民路2段正隆巷66號,25.0143519,121.4768183
新北市,板橋區,玉光里,65000010-059,曾國旃,新北市板橋區玉光里民生路2段60號,25.0180175,121.472164
新北市,板橋區,光仁里,65000010-060,謝昌佳,新北市板橋區光仁里懷仁街82號,25.0182765,121.4773575
新北市,板橋區,埤墘里,65000010-061,蘇琮貴,新北市板橋區埤墘里莒光路200巷32號4樓,25.0222741,121.4728604
新北市,板橋區,永安里,65000010-062,高導民,新北市板橋區萬板路128號3樓,25.0232898,121.4751644
新北市,板橋區,雙玉里,65000010-063,王聰震,新北市板橋區雙玉里永豐街251號,25.0214028,121.4778366
新北市,板橋區,廣新里,65000010-064,黃明和,新北市板橋區廣新里永豐街58號,25.0198849,121.4749317
新北市,板橋區,深丘里,65000010-065,陳廉誠,新北市板橋區中山路1段158巷11之3號,24.9698996,121.4321567
新北市,板橋區,香丘里,65000010-066,蘇淑芳,新北市板橋區中山路一段293之3號7樓,25.0143707,121.4705622
新北市,板橋區,西安里,65000010-067,黃水盛,新北市板橋區西安里觀光街1巷1號,25.0154086,121.4721591
新北市,板橋區,東丘里,65000010-068,張家維,新北市板橋區中山路2段60巷39弄28號,25.0149069,121.4752358
新北市,板橋區,長安里,65000010-069,陳聰文,新北市板橋區長安里長安街331巷84號5樓,25.0130683,121.4722886
新北市,板橋區,福丘里,65000010-070,謝徐金蓮,新北市板橋區中山路一段115號,25.010613,121.461827
新北市,板橋區,福祿里,65000010-071,呂春蘭,新北市板橋區福祿里國泰街39巷7弄15號,25.005877,121.4690481
新北市,板橋區,民族里,65000010-072,張進國,新北市板橋區民族里漢生東路326巷2弄11號,25.0083635,121.4711766
新北市,板橋區,國泰里,65000010-073,陳宗修,新北市板橋區國泰里國泰街85號,25.0064715,121.4671886
新北市,板橋區,福德里,65000010-074,劉慧琳,新北市板橋區忠孝路忠義巷16弄22號,25.0032986,121.4658253
新北市,板橋區,景星里,65000010-075,林志成,新北市板橋區景星里後埔街50號,25.0059138,121.4604778
新北市,板橋區,福星里,65000010-076,朱泰霖,新北市板橋區校前街39巷1號1樓,25.0032618,121.4611085
新北市,板橋區,鄉雲里,65000010-077,謝秀娥,新北市板橋區鄉雲里大明街15巷20號4樓,25.0021397,121.4582308
新北市,板橋區,廣德里,65000010-078,周建和,新北市板橋區重慶路245巷62號,25.0009289,121.465369
新北市,板橋區,大豐里,65000010-079,張錦堂,新北市板橋區大豐里重慶路290巷12號,24.9990796,121.4627375
新北市,板橋區,重慶里,65000010-080,許鳳霞,新北市板橋區國慶路149巷3弄6之1號2樓,24.996904,121.4608099
新北市,板橋區,仁愛里,65000010-081,葉中正,新北市板橋區仁愛里仁愛路59號,24.9996427,121.4604407
新北市,板橋區,和平里,65000010-082,李蔡春花,新北市板橋區和平里和平路安樂巷51號,24.993132,121.4622213
新北市,板橋區,廣福里,65000010-083,林健光,新北市板橋區信義路179之1號,24.9920486,121.4591541
新北市,板橋區,華興里,65000010-084,劉憲鐘,新北市板橋區貴興路8號1樓,25.0042671,121.4576014
新北市,板橋區,華貴里,65000010-085,林榮彩,新北市板橋區大明街20巷19弄18號2樓,25.0033105,121.4579441
新北市,板橋區,華德里,65000010-086,陳寶銓,新北市板橋區華德里四川路2段99之9號,24.994312,121.451957
新北市,板橋區,華東里,65000010-087,王典芳,新北市板橋區華東街266號16樓,25.0014622,121.4526253
新北市,板橋區,信義里,65000010-088,黃閎源,新北市板橋區信義路74巷5弄7之1號2樓,24.9925728,121.457087
新北市,板橋區,浮洲里,65000010-089,曾太吉,新北市板橋區大觀路1段28巷111弄10號,25.0084451,121.4501649
新北市,板橋區,華中里,65000010-090,黃榮煌,新北市板橋區華中里僑中一街102巷7弄19號,25.0129026,121.4460836
新北市,板橋區,僑中里,65000010-091,李旻樺,新北市板橋區僑中二街102巷1號,25.0081134,121.4459488
新北市,板橋區,中山里,65000010-092,林爽,新北市板橋區中山里大觀路2段37巷280號,25.001412,121.450243
新北市,板橋區,復興里,65000010-093,郭宗輝,新北市板橋區大觀路2段32號,25.0011945,121.4455202
新北市,板橋區,大安里,65000010-094,林惠英,新北市板橋區大安里大觀路2段153巷4號5樓,25.0005595,121.4458772
新北市,板橋區,福安里,65000010-095,陳國貞,新北市板橋區大觀路2段265巷66弄2號1樓,24.997218,121.44246
新北市,板橋區,聚安里,65000010-096,蔡世川,新北市板橋區聚安里龍興街71巷12號,25.0021533,121.4432802
新北市,板橋區,龍安里,65000010-097,黃春生,新北市板橋區龍安里龍興街42號2樓,25.0008497,121.4432113
新北市,板橋區,崑崙里,65000010-098,黃永裕,新北市板橋區大觀路3段160巷31弄7號,24.9936918,121.4301182
新北市,板橋區,溪洲里,65000010-099,王山崎,新北市板橋區溪洲里滿平二街15號,24.9868093,121.4252645
新北市,板橋區,溪北里,65000010-100,黃炳南,新北市板橋區溪北里溪崑二街45號,24.9908874,121.4284741
新北市,板橋區,香雅里,65000010-101,謝淑姿,新北市板橋區南雅西路2段307號,25.0157534,121.4522736
新北市,板橋區,新生里,65000010-102,王保利,新北市板橋區新生里新生街53巷18號,25.0216008,121.4576831
新北市,板橋區,文德里,65000010-103,賴錦賜,新北市板橋區文德路1-1號,25.0242125,121.462586
新北市,板橋區,文化里,65000010-104,莊英杰,新北市板橋區文化里松江街72巷20號2樓,25.0277714,121.4694247
新北市,板橋區,新海里,65000010-105,蔡慶發,新北市板橋區新海里新海路403巷6號,25.0267723,121.4582682
新北市,板橋區,莒光里,65000010-106,戴圭柱,新北市板橋區莒光路51巷2號3樓,25.0246061,121.4710328
新北市,板橋區,富貴里,65000010-107,詹汝,新北市板橋區富貴里三民路2段35巷7號5樓,25.0177344,121.4799059
新北市,板橋區,正泰里,65000010-108,羅祐祥,新北市板橋區三民路2段正泰2巷5號,25.0143455,121.4785757
新北市,板橋區,民生里,65000010-109,潘旭昇,新北市板橋區板新路94號2樓,25.0146955,121.4725319
新北市,板橋區,後埔里,65000010-110,林義壽,新北市板橋區後埔里重慶路107號4樓,25.0052281,121.4622363
新北市,板橋區,華福里,65000010-111,陳素玉,新北市板橋區東興街19號1樓,25.005209,121.4583824
新北市,板橋區,堂春里,65000010-112,劉世標,新北市板橋區堂春里金門街246號2樓,24.9872159,121.4305439
新北市,板橋區,成和里,65000010-113,鄧月茶,新北市板橋區成和里金門街97號,24.9924019,121.433303
新北市,板橋區,光榮里,65000010-114,林水壽,新北市板橋區光華街37巷8號,25.012816,121.453529
新北市,板橋區,民安里,65000010-115,陳文深,新北市板橋區民權路202巷4弄1號,25.0141684,121.4596007
新北市,板橋區,陽明里,65000010-116,吳文祺,新北市板橋區陽明里四維路103巷28號1樓,25.0241256,121.4645916
新北市,板橋區,朝陽里,65000010-117,陳文成,新北市板橋區朝陽里裕民街121號8樓,25.0274584,121.4594517
新北市,板橋區,松柏里,65000010-118,王宏志,新北市板橋區松柏里松柏街4號,25.0293891,121.4740799
新北市,板橋區,文聖里,65000010-119,楊仁瑰,新北市板橋區懷德街174巷18號,25.0294926,121.4786672
新北市,板橋區,居仁里,65000010-120,郭新芳,新北市板橋區三民路2段181巷4弄1號1樓,25.0142159,121.4795172
新北市,板橋區,莊敬里,65000010-121,戴清芳,新北市板橋區縣民大道3段33巷9弄7號,25.0208407,121.4733861
新北市,板橋區,東安里,65000010-122,陳聰騰,新北市板橋區長安街331巷81-1號2樓,25.0127692,121.4723394
新北市,板橋區,五權里,65000010-123,吳童,新北市板橋區五權里五權街13號,24.994635,121.464197
新北市,板橋區,溪福里,65000010-124,楊秋菊,新北市板橋區溪福里篤行路3段玉平巷68弄15之2號,24.9863241,121.4272523
新北市,板橋區,大觀里,65000010-125,何明山,新北市板橋區大觀里僑中二街92巷1號,25.0089169,121.446196
新北市,板橋區,歡園里,65000010-126,王國龍,新北市板橋區僑中一街125巷8弄8號1樓,25.0111265,121.444903
新北市,三重區,大有里,65000020-001,鐘林美珠,新北市三重區中正北路428巷22號,25.0700151,121.4747242
新北市,三重區,二重里,65000020-002,吳淑貞,新北市三重區大有街1-13號(頂崁街188號旁),25.066258,121.477276
新北市,三重區,頂崁里,65000020-003,郭文屏,新北市三重區光復路2段196巷35號2樓,25.0622321,121.4672013
新北市,三重區,谷王里,65000020-004,莊健昌,新北市三重區五谷王北街50巷38號,25.0512784,121.4752275
新北市,三重區,中興里,65000020-005,林深泉,新北市三重區光復路二段6號,25.053571,121.471815
新北市,三重區,德厚里,65000020-006,李燕清,新北市三重區重新路五段317巷1弄7-3號,25.049078,121.477793
新北市,三重區,成功里,65000020-007,陳世宗,新北市三重區成功路108巷8號3樓,25.0510461,121.4871396
新北市,三重區,福祉里,65000020-008,陳天森,新北市三重區重新路四段214巷15弄2號,25.0542309,121.487229
新北市,三重區,福民里,65000020-009,林麗枝,新北市三重區環河南路221巷40號,25.0527829,121.4908553
新北市,三重區,過田里,65000020-010,林雲漢,新北市三重區重陽路一段113巷1弄9號,25.059582,121.487335
新北市,三重區,錦田里,65000020-011,陳民哲,新北市三重區重陽路二段19巷15號之1,25.062301,121.488063
新北市,三重區,重明里,65000020-012,蔡淑玲,新北市三重區捷運路19巷2弄1號,25.056383,121.4850906
新北市,三重區,光田里,65000020-013,吳勝文,新北市三重區新生街53號1樓,25.0594076,121.4848507
新北市,三重區,光陽里,65000020-014,江燕輝,新北市三重區三陽路141號,25.058996,121.482829
新北市,三重區,田心里,65000020-015,廖興超,新北市三重區忠孝路三段50巷16號,25.0656018,121.48138
新北市,三重區,福田里,65000020-016,林清圳,新北市三重區忠孝路3段75巷5號1樓,25.0661769,121.480297
新北市,三重區,田中里,65000020-017,詹貴洪,新北市三重區重陽路2段52巷74弄5號1樓,25.066156,121.482813
新北市,三重區,田安里,65000020-018,陳黃秀美,新北市三重區中華路76巷3號,25.062785,121.483136
新北市,三重區,三民里,65000020-019,顔耀宗,新北市三重區重陽路二段34巷56號,25.063922,121.485271
新北市,三重區,光明里,65000020-020,李政達,新北市三重區集美街126巷47號1樓,25.0539336,121.4908626
新北市,三重區,光正里,65000020-021,陳志賢,新北市三重區環河南路220之3號1樓,25.052903,121.4936504
新北市,三重區,同安里,65000020-022,陳首清,新北市三重區大同南路161巷66號,25.0550055,121.4952747
新北市,三重區,同慶里,65000020-023,張絮淳,新北市三重區大同南路200巷61號,25.0570172,121.4984662
新北市,三重區,菜寮里,65000020-024,梁進益,新北市三重區光明路32巷23弄1號,25.058695,121.492101
新北市,三重區,永春里,65000020-025,李聰平,新北市三重區光明路86號,25.0568458,121.4924588
新北市,三重區,中正里,65000020-026,藍文龍,新北市三重區中寮街48巷17號,25.0583275,121.4933995
新北市,三重區,吉利里,65000020-027,蔡蕙如,新北市三重區中寮街114號,25.0577256,121.4937941
新北市,三重區,大同里,65000020-028,林汝聰,新北市三重區中正南路52巷24號,25.060474,121.4946944
新北市,三重區,中民里,65000020-029,許滄敏,新北市三重區大同南路57巷22號,25.0597447,121.4950704
新北市,三重區,平和里,65000020-030,黃進行,新北市三重區中正南路80巷3號,25.05917,121.494516
新北市,三重區,大安里,65000020-031,張志明,新北市三重區電信街98號,25.0581656,121.4955723
新北市,三重區,仁德里,65000020-032,陳明志,新北市三重區福裕街84號,25.0611914,121.4966578
新北市,三重區,忠孝里,65000020-033,劉子毓,新北市三重區正義南路89巷16號1樓,25.0594167,121.4977533
新北市,三重區,仁義里,65000020-034,林武雄,新北市三重區大同南路172巷26號1樓,25.0576164,121.4979233
新北市,三重區,光榮里,65000020-035,劉進明,新北市三重區福裕街34號,25.061314,121.499147
新北市,三重區,光輝里,65000020-036,吳松春,新北市三重區光興街51號,25.0604017,121.499016
新北市,三重區,福星里,65000020-037,紀信助,新北市三重區和平街31號,25.0624603,121.500958
新北市,三重區,福利里,65000020-038,劉佩華,新北市三重區中央南路111號2樓之8,25.0601244,121.5014577
新北市,三重區,清和里,65000020-039,楊乾坤,新北市三重區中央南路32巷36號1樓,25.0624609,121.5023994
新北市,三重區,永興里,65000020-040,李金壖,新北市三重區福德南路8巷20號,25.0636863,121.503648
新北市,三重區,中山里,65000020-041,郭晉,新北市三重區大同北路16巷24號,25.0619938,121.4948065
新北市,三重區,大園里,65000020-042,李宗霖,新北市三重區大同北路167巷47號,25.0651999,121.4939284
新北市,三重區,國隆里,65000020-043,傅孫昇,新北市三重區大仁街3巷40號,25.0639791,121.4925207
新北市,三重區,重陽里,65000020-044,陳興農,新北市三重區重陽路三段5巷15號,25.0652099,121.4911623
新北市,三重區,民生里,65000020-045,陳海順,新北市三重區大同北路193號,25.065719,121.492333
新北市,三重區,重新里,65000020-046,李榮欽,新北市三重區正義北路16巷26號,25.062785,121.4967396
新北市,三重區,正德里,65000020-047,賴樹林,新北市三重區正義北路48巷41號,25.0636644,121.4961335
新北市,三重區,正義里,65000020-048,黃烈山,新北市三重區自強路一段133-1號1樓,25.066608,121.494902
新北市,三重區,正安里,65000020-049,高素梅,新北市三重區長壽西街128號,25.066813,121.495128
新北市,三重區,自強里,65000020-050,王鴻賓,新北市三重區正義北路256巷135號1樓,25.0678243,121.4931179
新北市,三重區,文化里,65000020-051,王錫榮,新北市三重區平安街48號,25.0639799,121.497925
新北市,三重區,中央里,65000020-052,馮珮媗,新北市三重區中央里文化北路132巷38號,25.0664186,121.4975965
新北市,三重區,雙園里,65000020-053,藍裕舜,新北市三重區雙園街10-2號,25.0680897,121.4975957
新北市,三重區,錦通里,65000020-054,林煒財,新北市三重區文化北路11號3樓,25.0635131,121.4998012
新北市,三重區,錦安里,65000020-055,吳淑玲,新北市三重區長元街20號,25.0660302,121.4993357
新北市,三重區,長安里,65000020-056,李宗烈,新北市三重區中央北路120號之1,25.067544,121.499851
新北市,三重區,光華里,65000020-057,呂桂豐,新北市三重區福德北路64巷12號,25.0657069,121.5014412
新北市,三重區,長生里,65000020-058,王阿育,新北市三重區三和路二段12之1號2樓,25.0668957,121.5009531
新北市,三重區,開元里,65000020-059,潘素珍,新北市三重區開元街58號,25.066061,121.5035614
新北市,三重區,大德里,65000020-060,陳素櫻,新北市三重區福德北路53巷1號,25.0651843,121.5024561
新北市,三重區,長元里,65000020-061,梁聰明,新北市三重區長安街90之1號4樓,25.067627,121.5017954
新北市,三重區,長江里,65000020-062,唐明聰,新北市三重區河邊北街58巷10號,25.0674993,121.5033962
新北市,三重區,長泰里,65000020-063,陳文禮,新北市三重區長興街4號,25.0688541,121.4998632
新北市,三重區,長福里,65000020-064,林壽,新北市三重區長壽街192號,25.0690556,121.5039281
新北市,三重區,介壽里,65000020-065,林志祥,新北市三重區萬全街22號,25.0699588,121.4997322
新北市,三重區,萬壽里,65000020-066,王淵贊,新北市三重區萬全街64號,25.0700109,121.5011068
新北市,三重區,錦江里,65000020-067,江茂隆,新北市三重區河邊北街124巷31號,25.0714623,121.502939
新北市,三重區,龍濱里,65000020-068,曾添發,新北市三重區龍濱路219巷5號,25.0719464,121.5021232
新北市,三重區,龍門里,65000020-069,吳献彰,新北市三重區龍門路120號,25.0730177,121.4979083
新北市,三重區,秀江里,65000020-070,陳貴美,新北市三重區公園街3號1樓,25.0724677,121.4996004
新北市,三重區,奕壽里,65000020-071,周楨錩,新北市三重區三和路三段47巷7號,25.0716632,121.4957564
新北市,三重區,三安里,65000020-072,蔡政宗,新北市三重區安樂街36號1樓,25.0696572,121.4964272
新北市,三重區,福安里,65000020-073,施正通,新北市三重區六張街85號5樓,25.0701738,121.4930345
新北市,三重區,信安里,65000020-074,江政洋,新北市三重區正義北路364巷7號,25.0711067,121.4933843
新北市,三重區,安慶里,65000020-075,林金兩,新北市三重區正義北路286號,25.069389,121.4954862
新北市,三重區,幸福里,65000020-076,郭冬賜,新北市三重區安慶街322號,25.067021,121.488566
新北市,三重區,六合里,65000020-077,陳銘豐,新北市三重區自強路2段68號2樓,25.069856,121.488522
新北市,三重區,六福里,65000020-078,洪順亮,新北市三重區中正北路145巷8弄13號,25.0683388,121.4837835
新北市,三重區,順德里,65000020-079,李鴻志,新北市三重區河邊北街256巷28號,25.0758965,121.5010913
新北市,三重區,承德里,65000020-080,吳政權,新北市三重區仁壽街200號,25.0748609,121.5008734
新北市,三重區,瑞德里,65000020-081,陳仕宏,新北市三重區仁昌街83號,25.0747353,121.4991591
新北市,三重區,崇德里,65000020-082,吳芳明,新北市三重區仁福街64巷22號,25.0753282,121.4974981
新北市,三重區,厚德里,65000020-083,陳榮楠,新北市三重區三和路三段170巷11號,25.0730181,121.4921673
新北市,三重區,維德里,65000020-084,姚振芳,新北市三重區三和路3段125巷32號,25.0737257,121.4937144
新北市,三重區,尚德里,65000020-085,劉錫慶,新北市三重區忠孝路一段25號3樓,25.072035,121.4918913
新北市,三重區,培德里,65000020-086,謝蕙鎂,新北市三重區車路頭街27號,25.0707185,121.48383
新北市,三重區,永德里,65000020-087,陳冠霖,新北市三重區永德里後竹圍街207號1樓,25.0718149,121.4847352
新北市,三重區,永盛里,65000020-088,侯錦足,新北市三重區三和路4段218巷23號,25.0763926,121.4851914
新北市,三重區,永福里,65000020-089,呂宜興,新北市三重區力行路二段136巷11弄24號,25.0764612,121.4817994
新北市,三重區,永清里,65000020-090,吳瑞發,新北市三重區三和路四段390巷59號,25.0784787,121.4795582
新北市,三重區,永安里,65000020-091,黃麗伃,新北市三重區力行路二段63巷7號,25.0747741,121.4826909
新北市,三重區,永煇里,65000020-092,郭才福,新北市三重區大勇街24號2樓,25.0715107,121.482693
新北市,三重區,溪美里,65000020-093,葉仁德,新北市三重區仁政街82號,25.0776133,121.4925051
新北市,三重區,福隆里,65000020-094,曾嘉斌,新北市三重區自強路4段5號1樓,25.0762242,121.4886426
新北市,三重區,五常里,65000020-095,王瑞華,新北市三重區仁義街167巷35號,25.0821547,121.4981807
新北市,三重區,五福里,65000020-096,李福山,新北市三重區仁愛街377巷41號,25.0812486,121.4930539
新北市,三重區,仁忠里,65000020-097,黃演添,新北市三重區仁愛街327巷49號,25.0801497,121.4934386
新北市,三重區,慈福里,65000020-098,邱茂泉,新北市三重區三和路四段167巷159號,25.0803285,121.4883533
新北市,三重區,慈生里,65000020-099,吳瓊茹,新北市三重區三和路4段181巷220號,25.0804552,121.487284
新北市,三重區,慈惠里,65000020-100,蔡清德,新北市三重區溪尾街218巷40號,25.0808804,121.4864075
新北市,三重區,慈愛里,65000020-101,李漢琦,新北市三重區三和路4段215巷17號1樓,25.0798324,121.4822749
新北市,三重區,慈化里,65000020-102,張清泉,新北市三重區分子尾街80號,25.082249,121.489045
新北市,三重區,慈祐里,65000020-103,蔡清山,新北市三重區五華街122巷16號1樓,25.0827993,121.4914386
新北市,三重區,五華里,65000020-104,張鴻銘,新北市三重區五華街71巷86號,25.0839057,121.4941237
新北市,三重區,富貴里,65000020-105,胡天龍,新北市三重區碧華街452號,25.0861337,121.4933034
新北市,三重區,富華里,65000020-106,呂子隆,新北市三重區五華街93巷16號,25.0840807,121.4923762
新北市,三重區,富福里,65000020-107,陳惟國,新北市三重區富福街19號,25.0834503,121.490487
新北市,三重區,碧華里,65000020-108,林佳鴻,新北市三重區碧華街216巷11弄9號,25.0825492,121.4868073
新北市,三重區,五谷里,65000020-109,張振隆,新北市三重區光復路一段61巷25弄6之3號1樓,25.048261,121.473731
新北市,三重區,博愛里,65000020-110,林廣,新北市三重區頂崁街217巷4弄4號,25.0681029,121.477687
新北市,三重區,福德里,65000020-111,吳叁寶,新北市三重區重新路四段244巷7弄20號1樓,25.052864,121.487007
新北市,三重區,永吉里,65000020-112,洪長清,新北市三重區三和路四段160巷98號,25.0746243,121.4851539
新北市,三重區,永發里,65000020-113,陳綉娜,新北市三重區力行路一段178巷25號(地下室),25.0714223,121.4812141
新北市,三重區,永順里,65000020-114,許嘉陣,新北市三重區永福街135巷16號,25.0768484,121.4781278
新北市,三重區,永豐里,65000020-115,黃冬茂,新北市三重區永福街197巷37弄2號,25.0741281,121.47821
新北市,三重區,立德里,65000020-116,周宗輝,新北市三重區自強路二段84巷21號,25.0702779,121.4870198
新北市,三重區,福樂里,65000020-117,蘇修賢,新北市三重區三和路四段125巷59號1樓,25.0783797,121.4869252
新北市,三重區,仁華里,65000020-118,洪國林,新北市三重區碧華街50號,25.0813775,121.4836048
新北市,三重區,五順里,65000020-119,洪嘉仁,新北市三重區仁義街211巷13號,25.0821765,121.4974055
新北市,中和區,中原里,65000030-001,陳正德,新北市中和區中原街123號,25.0105126,121.4857937
新北市,中和區,平河里,65000030-002,葛色芬,新北市中和區中山路二段433號,25.0047597,121.4850133
新北市,中和區,信和里,65000030-003,許泰銘,新北市中和區新生街186巷2號,24.9997705,121.4834842
新北市,中和區,仁和里,65000030-004,林達,新北市中和區連城路469巷7弄2號1樓,24.995502,121.483836
新北市,中和區,中正里,65000030-005,呂嘉原,新北市中和區連城路347巷16弄13號,24.9949979,121.488136
新北市,中和區,建和里,65000030-006,江曉佩,新北市中和區連城路283號,24.9962546,121.4904213
新北市,中和區,連和里,65000030-007,朱榮凱,新北市中和區連城路152號6樓之2,24.9984214,121.4947389
新北市,中和區,連城里,65000030-008,林仁凱,新北市中和區連城路171巷7號,24.9973537,121.4956865
新北市,中和區,力行里,65000030-009,周聰明,新北市中和區中正路250號,24.9941768,121.4956097
新北市,中和區,枋寮里,65000030-010,羅仕滄,新北市中和區南工路18號,25.000443,121.505628
新北市,中和區,漳和里,65000030-011,劉建盛,新北市中和區中和路142號之一13樓,24.999572,121.503742
新北市,中和區,廟美里,65000030-012,曾秀美,新北市中和區泰和街44巷34號,25.001063,121.498366
新北市,中和區,福真里,65000030-013,蔡昭發,新北市中和區中山路二段296號10樓之1,25.0025138,121.496247
新北市,中和區,福善里,65000030-014,陳愷松,新北市中和區永和路9巷36號,25.003386,121.4983492
新北市,中和區,福美里,65000030-015,陳靜慧,新北市中和區莊敬路33巷30之5號,25.0057931,121.5000397
新北市,中和區,福祥里,65000030-016,張昌期,新北市中和區永和路88之4號1樓,25.0053964,121.4973083
新北市,中和區,瓦磘里,65000030-017,林綺芳,新北市中和區中山路二段3巷22弄32號,25.0042942,121.5058363
新北市,中和區,福和里,65000030-018,簡健翔,新北市中和區中山路二段131巷6號,25.0025569,121.502674
新北市,中和區,佳和里,65000030-019,陳得福,新北市中和區中山路二段2巷5弄4號,25.006277,121.504336
新北市,中和區,安樂里,65000030-020,呂福來,新北市中和區安樂路217巷60號,24.9976509,121.5128818
新北市,中和區,安和里,65000030-021,王林阿對,新北市中和區宜安路119巷1號,24.9977692,121.5100576
新北市,中和區,安平里,65000030-022,林芳飾,新北市中和區中和路262巷24弄22號,24.9987993,121.509952
新北市,中和區,中安里,65000030-023,李謙國,新北市中和區永貞路284-1號8樓,25.004089,121.513173
新北市,中和區,泰安里,65000030-024,葉玉伴,新北市中和區保健路2巷15號,24.997676,121.507377
新北市,中和區,新南里,65000030-025,申文博,新北市中和區景平路584號3樓,24.9958723,121.5013342
新北市,中和區,南山里,65000030-026,紀忠和,新北市中和區南山路123號,24.9972156,121.5022017
新北市,中和區,秀山里,65000030-027,林秋宇,新北市中和區自立路56巷5號,24.9916933,121.5232549
新北市,中和區,秀成里,65000030-028,吳金松,新北市中和區大智街109巷16號,24.9927382,121.5238064
新北市,中和區,秀福里,65000030-029,林江西,新北市中和區秀朗路3段10巷37弄8號1樓,24.9959479,121.523804
新北市,中和區,秀景里,65000030-030,李淙河,新北市中和區成功路72號,24.9919604,121.525869
新北市,中和區,秀明里,65000030-031,施義男,新北市中和區景平路278巷16弄28號1樓,24.9938046,121.5145685
新北市,中和區,秀峰里,65000030-032,周存炎,新北市中和區秀峰街103巷1弄2號,24.9899817,121.5212455
新北市,中和區,秀仁里,65000030-033,陳慶章,新北市中和區大勇街43巷8號1樓,24.9948421,121.5174447
新北市,中和區,頂南里,65000030-034,謝森儒,新北市中和區興南路2段159巷14號8樓,24.983027,121.504989
新北市,中和區,華新里,65000030-035,楊錦煌,新北市中和區華新街145號1樓,24.9816053,121.5063307
新北市,中和區,東南里,65000030-036,李武雄,新北市中和區仁愛街68號,24.9877476,121.5112574
新北市,中和區,華南里,65000030-037,林平發,新北市中和區忠孝街2巷9弄16號2樓,24.9823842,121.5106251
新北市,中和區,忠孝里,65000030-038,呂秋東,新北市中和區華新街73號,24.9839648,121.508201
新北市,中和區,崇南里,65000030-039,鄭茂盛,新北市中和區景新街496巷35弄1-1號2樓,24.9857095,121.5136309
新北市,中和區,景南里,65000030-040,胡宇辰,新北市中和區景新街467巷25號2樓,24.9886923,121.5143732
新北市,中和區,橫路里,65000030-041,呂星輝,新北市中和區興南路3段20巷臨8號,24.9798164,121.4966199
新北市,中和區,內南里,65000030-042,曾金禧,新北市中和區興南路2段142巷19弄8號,24.9835476,121.5035194
新北市,中和區,壽南里,65000030-043,呂武雄,新北市中和區南山路320巷10弄6號1樓,24.9863327,121.5067778
新北市,中和區,外南里,65000030-044,連顯達,新北市中和區復興路263巷9弄8號,24.989732,121.5030434
新北市,中和區,復興里,65000030-045,尤敏玉,新北市中和區復興路280巷18弄10號1樓,24.9918242,121.5022525
新北市,中和區,和興里,65000030-046,蔡璧如,新北市中和區景平路385巷7號,24.9940685,121.5025793
新北市,中和區,景平里,65000030-047,游進興,新北市中和區景平路159巷7號,24.9919134,121.5126853
新北市,中和區,景新里,65000030-048,游成家,新北市中和區興南路1段56巷28之2號1樓,24.9913388,121.5103232
新北市,中和區,景福里,65000030-049,王坤茂,新北市中和區景平路259巷34號,24.9929313,121.5069136
新北市,中和區,景安里,65000030-050,游任是,新北市中和區景新街212號,24.9952111,121.5070522
新北市,中和區,景文里,65000030-051,林東銘,新北市中和區景新街160巷8-1號5樓,24.9970259,121.505269
新北市,中和區,錦和里,65000030-052,林進明,新北市中和區圓通路369巷2號1樓,24.9889729,121.4908358
新北市,中和區,錦昌里,65000030-053,范文輝,新北市中和區圓通路367巷13弄26號,24.9882338,121.4930017
新北市,中和區,灰磘里,65000030-054,林鑫宏,新北市中和區員山路14號之11,24.983335,121.484539
新北市,中和區,積穗里,65000030-055,石淑鳳,新北市中和區員山路394巷5號,25.0046999,121.4808855
新北市,中和區,民享里,65000030-056,簡美蓮,新北市中和區民享街91-3號1樓,25.001296,121.474527
新北市,中和區,員山里,65000030-057,藍國鐘,新北市中和區中山路3段120之32號1樓,25.0060706,121.4757201
新北市,中和區,嘉穗里,65000030-058,陳榮鐘,新北市中和區民利街15號,24.9989865,121.4804854
新北市,中和區,文元里,65000030-059,吳欣怡,新北市中和區員山路132巷24號,24.996202,121.482338
新北市,中和區,嘉新里,65000030-060,林后福,新北市中和區員山路347號,25.0017799,121.481173
新北市,中和區,民安里,65000030-061,張金鳳,新北市中和區民安街53-2號1樓,24.999772,121.479336
新北市,中和區,安穗里,65000030-062,周賜貴,新北市中和區員山路226巷5弄1號,25.000822,121.481677
新北市,中和區,瑞穗里,65000030-063,陳美華,新北市中和區莒光路11號,25.0058135,121.4720946
新北市,中和區,明穗里,65000030-064,何韋翰,新北市中和區民享街114巷9號1樓,24.999223,121.474054
新北市,中和區,清穗里,65000030-065,王金定,新北市中和區民德路214號,24.9982403,121.4681176
新北市,中和區,自強里,65000030-066,張興順,新北市中和區國光街125號,25.0008638,121.4693022
新北市,中和區,德穗里,65000030-067,詹文定,新北市中和區莒光路84巷1號,25.002565,121.472054
新北市,中和區,民生里,65000030-068,朱朝鶯,新北市中和區民生街85巷4弄5號,25.0041941,121.4688743
新北市,中和區,國光里,65000030-069,蘇俊琦,新北市中和區民德路25巷10號,25.002738,121.469519
新北市,中和區,壽德里,65000030-070,張宗正,新北市中和區華順街138號,24.9960058,121.4647088
新北市,中和區,明德里,65000030-071,侯鈞瀚,新北市中和區華安街16巷8號,24.9979733,121.4664763
新北市,中和區,秀水里,65000030-072,陳炳男,新北市中和區大仁街10巷33號,24.9925431,121.5194421
新北市,中和區,德行里,65000030-073,陳靜宜,新北市中和區中正路211巷13弄3號,24.9930073,121.4971427
新北市,中和區,宜安里,65000030-074,陳素貞,新北市中和區安樂路143巷28號2樓,24.9965981,121.5130443
新北市,中和區,安順里,65000030-075,陳振益,新北市中和區保健路106巷67號2樓,24.9947871,121.5115828
新北市,中和區,秀義里,65000030-076,盧龍州,新北市中和區秀朗路3段76巷1號,24.9941537,121.5259321
新北市,中和區,秀士里,65000030-077,洪天佑,新北市中和區景平路111巷9弄62-1號,24.990272,121.516836
新北市,中和區,興南里,65000030-078,呂明志,新北市中和區信義街41巷12號,24.9891875,121.511677
新北市,中和區,景本里,65000030-079,張林秀麗,新北市中和區景新街423巷36號,24.9897867,121.5147062
新北市,中和區,福南里,65000030-080,吳國強,新北市中和區興南路2段54巷11弄6號3樓,24.9854676,121.5054851
新北市,中和區,中興里,65000030-081,游志鴻,新北市中和區復興路263巷12號2樓,24.989855,121.5027476
新北市,中和區,吉興里,65000030-082,陳成功,新北市中和區南山路315巷7號,24.9917231,121.504981
新北市,中和區,中山里,65000030-083,江雪嬌,新北市中和區錦和路196巷4弄6號2樓,24.9947421,121.4899355
新北市,中和區,碧河里,65000030-084,賴清華,新北市中和區建八路164巷8號3樓,24.9981656,121.4901982
新北市,中和區,錦中里,65000030-085,范榮豐,新北市中和區圓通路294巷13號,24.9901762,121.4886802
新北市,中和區,錦盛里,65000030-086,劉德安,新北市中和區圓通路335巷37弄12號,24.988922,121.4937581
新北市,中和區,民有里,65000030-087,呂來,新北市中和區民享街37號2樓,25.00354,121.474151
新北市,中和區,員富里,65000030-088,蔡宗霖,新北市中和區員山路530號,25.0098749,121.4790502
新北市,中和區,嘉慶里,65000030-089,吳永華,新北市中和區連城路569巷9弄32號1樓,24.993732,121.479436
新北市,中和區,冠穗里,65000030-090,鄭經美,新北市中和區民享街54巷5號1樓,25.002225,121.473597
新北市,中和區,國華里,65000030-091,童宥翔,新北市中和區國光街102巷15號,25.0007685,121.4708761
新北市,中和區,正南里,65000030-092,游滿堂,新北市中和區興南路2段49號2樓,24.9853442,121.5073049
新北市,中和區,正行里,65000030-093,陳盈君,新北市中和區圓通路141巷35弄2號,24.995083,121.4991036
新北市,永和區,福林里,65000040-001,莊水獅,新北市永和區福林里竹林路225巷15號4樓,25.008692,121.521663
新北市,永和區,文化里,65000040-002,陳水上,新北市永和區保福路2段158巷5號,25.0152,121.509227
新北市,永和區,豫溪里,65000040-003,廖亦芳,新北市永和區豫溪里中正路609巷5弄6號2樓,25.0091046,121.5163796
新北市,永和區,光明里,65000040-004,呂嘉慧,新北市永和區光明里國光路22號,25.0084612,121.5187328
新北市,永和區,仁愛里,65000040-005,李天助,新北市永和區仁愛里文化路113巷16號,25.014437,121.512952
新北市,永和區,永貞里,65000040-006,薛凌亞,新北市永和區永貞里永貞路80號6樓,25.0052988,121.5201734
新北市,永和區,永福里,65000040-007,陳清香,新北市永和區永福里福和路93巷1號,25.0075405,121.5223335
新北市,永和區,民治里,65000040-008,陳以樂,新北市永和區民治里得和路104巷14號,24.9995851,121.5179501
新北市,永和區,永成里,65000040-009,周國良,新北市永和區永成里文化路173號,25.016761,121.509838
新北市,永和區,忠義里,65000040-010,"陳英偉
(代理)",新北市永和區忠義里保福路3段19號,25.015829,121.5080148
新北市,永和區,永元里,65000040-011,呂卓春英,新北市永和區永元里得和路259號,24.9999723,121.5213397
新北市,永和區,秀林里,65000040-012,関宏達,新北市永和區秀林里秀朗路二段116號,25.0015302,121.5244065
新北市,永和區,保安里,65000040-013,許承煬,新北市永和區保安里保生路5巷1號19樓,25.0071,121.50616
新北市,永和區,中溪里,65000040-014,謝春蘭,新北市永和區中溪里保福路二段59巷31號,25.0118628,121.5100111
新北市,永和區,永安里,65000040-015,陳欽宗,新北市永和區永安里安樂路304巷2號,25.0049739,121.5145245
新北市,永和區,民族里,65000040-016,張淑美,新北市永和區民族里民族街57號3樓,24.9980092,121.5185082
新北市,永和區,民權里,65000040-017,鄭文昌,新北市永和區民權里民生路22巷3號,24.9971793,121.5221723
新北市,永和區,中興里,65000040-018,林東誼,新北市永和區復興街88號,25.0136004,121.5172678
新北市,永和區,勵行里,65000040-019,洪敏,新北市永和區勵行里勵行街28巷4號,25.0136729,121.5161356
新北市,永和區,秀朗里,65000040-020,沈賜是,新北市永和區秀朗里永亨路203號,25.0026556,121.5260653
新北市,永和區,秀成里,65000040-021,黃昰瑋,新北市永和區秀成里成功路一段93巷20弄12號,25.0025049,121.5279865
新北市,永和區,上溪里,65000040-022,賴碧鑾,新北市永和區上溪里仁愛路18號7樓,25.013698,121.514846
新北市,永和區,竹林里,65000040-023,王素娥,新北市永和區竹林里豫溪街151巷9號,25.0109398,121.5208197
新北市,永和區,雙和里,65000040-024,黃珠珪,新北市永和區雙和里中和路335巷14號,25.000305,121.507561
新北市,永和區,安和里,65000040-025,鄧長安,新北市永和區安和里水源街45巷14號2樓,25.0037833,121.509512
新北市,永和區,水源里,65000040-026,柯義和,新北市永和區水源里保平路151巷15號2樓,25.0051662,121.5106072
新北市,永和區,協和里,65000040-027,陳昱庭,新北市永和區保平路50巷22弄2號,25.0080494,121.5107252
新北市,永和區,河堤里,65000040-028,陳功明,新北市永和區河堤里永和路二段425巷64號,25.0173561,121.5135637
新北市,永和區,頂溪里,65000040-029,蔡美娟,新北市永和區頂溪里忠孝街52號,25.0157853,121.5140927
新北市,永和區,潭墘里,65000040-030,阮汪淑華,新北市永和區潭墘里安樂路180號12樓,25.001108,121.5149487
新北市,永和區,潭安里,65000040-031,游源潭,新北市永和區潭安里安樂路72巷7號,24.9986878,121.514994
新北市,永和區,大新里,65000040-032,朱文燦,新北市永和區大新里大新街27號,25.0085722,121.5151435
新北市,永和區,保平里,65000040-033,王春琇,新北市永和區保平里保平路268巷28號,25.0063957,121.5076685
新北市,永和區,民本里,65000040-034,林山田,新北市永和區民本里成功路2段140號,24.9972031,121.5264542
新北市,永和區,民樂里,65000040-035,潘慶忠,新北市永和區民樂里成功路二段121巷9號,24.9985367,121.5272269
新北市,永和區,光復里,65000040-036,林炳文,新北市永和區光復里博愛街15號,25.016059,121.517199
新北市,永和區,復興里,65000040-037,葉斯修,新北市永和區復興里環河東路一段110號4樓之1,25.015922,121.5200618
新北市,永和區,福和里,65000040-038,呂昶祺,新北市永和區福和里永貞路115號,25.004212,121.517628
新北市,永和區,得和里,65000040-039,蔡綉花,新北市永和區得和里秀朗路一段209巷7號,25.0034707,121.5195605
新北市,永和區,智光里,65000040-040,趙振丞,新北市永和區智光里民享街2巷8號,24.995527,121.5150595
新北市,永和區,新生里,65000040-041,姜銀英,新北市永和區新生里新生路92巷3弄21號,25.0147686,121.5067464
新北市,永和區,大同里,65000040-042,陳健蒼,新北市永和區大同里新生路249巷2弄6號,25.0130134,121.5058128
新北市,永和區,前溪里,65000040-043,方金源,新北市永和區前溪里保福路一段71號,25.0101722,121.5121753
新北市,永和區,和平里,65000040-044,柳舒雲,新北市永和區和平里保平路236巷12弄7號,25.0066022,121.5087004
新北市,永和區,新廍里,65000040-045,陳王綉緞,新北市永和區新廍里文化路124號,25.0154189,121.513127
新北市,永和區,下溪里,65000040-046,林敏德,新北市永和區下溪里保安路107號,25.0140906,121.5081611
新北市,永和區,秀和里,65000040-047,孫和連,新北市永和區秀和里林森路68號,25.004173,121.5236612
新北市,永和區,河濱里,65000040-048,孫黃秋月,新北市永和區河濱里林森路10巷7號,25.0058623,121.5262244
新北市,永和區,民生里,65000040-049,盧燕山,新北市永和區民生里民生路25巷2號2樓,24.9985073,121.5232196
新北市,永和區,秀得里,65000040-050,高欽,新北市永和區秀得里成功路二段60號,24.9997223,121.5266068
新北市,永和區,上林里,65000040-051,林維楠,新北市永和區上林里竹林路75巷17號旁,25.013648,121.5196449
新北市,永和區,網溪里,65000040-052,孫德欽,新北市永和區網溪里光復街60巷14號,25.017398,121.517506
新北市,永和區,正興里,65000040-053,江貴滿,新北市永和區正興里豫溪街57巷11弄2號,25.010417,121.517141
新北市,永和區,永興里,65000040-054,陳錦松,新北市永和區永興里竹林路124巷30號,25.011414,121.518303
新北市,永和區,桂林里,65000040-055,陳映璇,新北市永和區桂林里竹林路103號2樓,25.0119988,121.5198497
新北市,永和區,店街里,65000040-056,陳茂己,新北市永和區店街里秀朗路一段51號,25.0067614,121.5142978
新北市,永和區,信義里,65000040-057,莊瑞雲,新北市永和區後溪里信義路25巷30弄3號,25.0117929,121.512583
新北市,永和區,後溪里,65000040-058,莊銘淵,新北市永和區後溪里信義路25巷30弄3號,25.0117929,121.512583
新北市,永和區,民富里,65000040-059,林碧燕,新北市永和區民富里成功路二段102巷2號,24.9981833,121.5265893
新北市,永和區,秀元里,65000040-060,饒金妹,新北市永和區秀元里永元路52巷18號,25.000795,121.523074
新北市,永和區,永樂里,65000040-061,許政鎧,新北市永和區永樂里永和路一段18巷5弄5號2樓,25.0046899,121.513274
新北市,永和區,保順里,65000040-062,林葉成,新北市永和區保順里環河西路二段201號5樓,25.0109959,121.5023693
新北市,新莊區,海山里,65000050-001,童滿金,新北市新莊區瓊泰路184號,25.0333876,121.443207
新北市,新莊區,頭前里,65000050-002,葉建宏,新北市新莊區頭前路12號,25.0526197,121.4682675
新北市,新莊區,國泰里,65000050-003,陳金乾,新北市新莊區景德路644號,25.032938,121.43894
新北市,新莊區,全安里,65000050-004,蔡明祥,新北市新莊區豐年街41巷11號,25.0322325,121.4469475
新北市,新莊區,福基里,65000050-005,王曜輝,新北市新莊區化成路746巷3弄11號,25.058062,121.465801
新北市,新莊區,豐年里,65000050-006,林麗華,新北市新莊區豐年街90巷37號,25.0307615,121.4453932
新北市,新莊區,忠孝里,65000050-007,林長川,新北市新莊區建中街132號,25.03669,121.44521
新北市,新莊區,恆安里,65000050-008,蔡陳恒菊,新北市新莊區中港路125號1樓,25.039991,121.455105
新北市,新莊區,後港里,65000050-009,施明進,新北市新莊區後港一路20號2樓,25.0258775,121.4250246
新北市,新莊區,文衡里,65000050-010,王慶順,新北市新莊區景德路199之1號2樓,25.0338165,121.4497333
新北市,新莊區,中美里,65000050-011,陳明卿,新北市新莊區中華路一段116巷1弄7號2樓,25.040848,121.452873
新北市,新莊區,八德里,65000050-012,丁銀寶,新北市新莊區八德街58巷3號,25.022891,121.424973
新北市,新莊區,興漢里,65000050-013,簡明德,新北市新莊區新興街114巷2號,25.039194,121.4507912
新北市,新莊區,中和里,65000050-014,林孟鴻,新北市新莊區建豐街43號,25.0437017,121.4508497
新北市,新莊區,西盛里,65000050-015,陳金田,新北市新莊區新樹路255號之2,25.0218976,121.4349092
新北市,新莊區,榮和里,65000050-016,黃希義,新北市新莊區永寧街19巷1號,25.0374756,121.452532
新北市,新莊區,中泰里,65000050-017,郭樹琳,新北市新莊區中港一街55號,25.0453735,121.4503674
新北市,新莊區,瓊林里,65000050-018,吳佳擇,新北市新莊區瓊泰路51巷8號,25.02829,121.443209
新北市,新莊區,文德里,65000050-019,陳圓光,新北市新莊區新莊路176號,25.0353146,121.4547088
新北市,新莊區,中誠里,65000050-020,沈丁子,新北市新莊區中誠街58巷15號,25.0486505,121.450838
新北市,新莊區,裕民里,65000050-021,曾榆期,新北市新莊區裕民街103巷18弄13號,25.0226589,121.418829
新北市,新莊區,文明里,65000050-022,張魏春花,新北市新莊區新莊路139號,25.0362919,121.4567612
新北市,新莊區,中港里,65000050-023,許翠華,新北市新莊區幸福路678巷4-1號,25.0498667,121.4507494
新北市,新莊區,富國里,65000050-024,許游美蘭,新北市新莊區中正路855巷10號,25.0273386,121.4197564
新北市,新莊區,思源里,65000050-025,沈明耀,新北市新莊區思源路87巷1號2樓,25.040964,121.459421
新北市,新莊區,立人里,65000050-026,吳碧麗,新北市新莊區中港路五守新村16巷14號2樓,25.0391002,121.4546742
新北市,新莊區,南港里,65000050-027,林朝基,新北市新莊區四維路188巷8號1樓,25.0210138,121.4214373
新北市,新莊區,仁愛里,65000050-028,吳俊聲,新北市新莊區福壽街27號,25.0482104,121.4579056
新北市,新莊區,立德里,65000050-029,莊玉雲,新北市新莊區公園路44號,25.039257,121.4490839
新北市,新莊區,信義里,65000050-030,吳秋桂,新北市新莊區福壽街99巷9弄5號,25.0502477,121.4578233
新北市,新莊區,立言里,65000050-031,劉進益,新北市新莊區新泰路255巷58號1樓,25.039558,121.4437375
新北市,新莊區,民安里,65000050-032,許桎逢,新北市新莊區民安西路24巷4號1樓,25.0210212,121.4263778
新北市,新莊區,和平里,65000050-033,蔡河彬,新北市新莊區福壽街142巷33號之1,25.0520006,121.4591699
新北市,新莊區,立功里,65000050-034,陳易澤,新北市新莊區泰順街22號,25.0421593,121.4458413
新北市,新莊區,民本里,65000050-035,陳秋月,新北市新莊區民本街11巷32號,25.0203147,121.4289073
新北市,新莊區,化成里,65000050-036,陳林秀花,新北市新莊區化成路258號之5,25.0472989,121.4657225
新北市,新莊區,立志里,65000050-037,陳崑祥,新北市新莊區中港一街143號2樓,25.0449842,121.4478654
新北市,新莊區,光華里,65000050-038,呂芳錦,新北市新莊區光華街41號,25.0113757,121.428944
新北市,新莊區,思賢里,65000050-039,卓茂松,新北市新莊區銘德街94號,25.0435716,121.4558704
新北市,新莊區,營盤里,65000050-040,林宗暉,新北市新莊區中正路522-1號,25.0317822,121.4313076
新北市,新莊區,光榮里,65000050-041,張湘琪,新北市新莊區西盛街185號1樓,25.0174035,121.4288691
新北市,新莊區,自強里,65000050-042,柯蔡阿菜,新北市新莊區自強街23巷5號,25.0464019,121.4542595
新北市,新莊區,丹鳳里,65000050-043,林永傑,新北市新莊區天祥街72巷2號1樓,25.0294121,121.4161747
新北市,新莊區,光明里,65000050-044,廖榮裕,新北市新莊區民安西路292號,25.0123418,121.4261328
新北市,新莊區,自立里,65000050-045,吳東杉,新北市新莊區自強街70巷5弄2號,25.0472443,121.4553872
新北市,新莊區,合鳳里,65000050-046,林永憲,新北市新莊區天祥街47巷12號1樓,25.0280891,121.4161353
新北市,新莊區,幸福里,65000050-047,陳炳崑,新北市新莊區昌盛街103巷10號,25.0505036,121.456188
新北市,新莊區,雙鳳里,65000050-048,潘素娥,新北市新莊區鳳山街52號,25.0257927,121.4141927
新北市,新莊區,自信里,65000050-049,林秋雲,新北市新莊區自信街65巷9弄13號,25.0486396,121.4549042
新北市,新莊區,龍鳳里,65000050-050,吳恭騰,新北市新莊區中正路新建巷47號,25.0216683,121.4145928
新北市,新莊區,中華里,65000050-051,陳敬波,新北市新莊區中港路288巷10號1樓,25.0443875,121.4533988
新北市,新莊區,中隆里,65000050-052,吳清標,新北市新莊區中港路434號3樓,25.0509102,121.4520567
新北市,新莊區,中原里,65000050-053,趙勇成,新北市新莊區中港路中慶巷26號,25.0538735,121.4498081
新北市,新莊區,中信里,65000050-054,林阿元,新北市新莊區中義街27號,25.051076,121.450436
新北市,新莊區,四維里,65000050-055,吳岳澤,新北市新莊區四維路207巷16號,25.0198298,121.4224588
新北市,新莊區,建福里,65000050-056,劉金祥,新北市新莊區建福路59巷26號,25.0274658,121.4279176
新北市,新莊區,中宏里,65000050-057,洪少欽,新北市新莊區中和街59巷8號1樓,25.0469729,121.4470404
新北市,新莊區,中全里,65000050-058,陳柏廷,新北市新莊區中泰街104巷6弄8號,25.0469001,121.4492524
新北市,新莊區,立泰里,65000050-059,許文章,新北市新莊區新泰路381巷26號,25.0437905,121.4429207
新北市,新莊區,全泰里,65000050-060,陳哲郎,新北市新莊區中正路318巷12號2樓,25.0360725,121.4462057
新北市,新莊區,仁義里,65000050-061,陳文一,新北市新莊區福樂街90號,25.0472387,121.4577278
新北市,新莊區,立基里,65000050-062,張中貞,新北市新莊區新泰路502巷18號1樓,25.0463529,121.443111
新北市,新莊區,昌明里,65000050-063,呂嘉群,新北市新莊區昌明街30巷5弄1號,25.052748,121.456652
新北市,新莊區,昌平里,65000050-064,林玉華,新北市新莊區中華路二段276號13樓,25.0536027,121.4527565
新北市,新莊區,文聖里,65000050-065,蔣添榮,新北市新莊區建中街32巷3號,25.0377669,121.448831
新北市,新莊區,萬安里,65000050-066,游綉蓮,新北市新莊區萬安街87巷13號,25.0233224,121.4219033
新北市,新莊區,龍安里,65000050-067,吳庭妤,新北市新莊區四維路212巷48號,25.0207436,121.4202034
新北市,新莊區,福營里,65000050-068,廖皇源,新北市新莊區建國一路16.18號2樓,25.023914,121.43305
新北市,新莊區,後德里,65000050-069,劉臺鳳,新北市新莊區後港一路49巷5弄22號,25.027174,121.425054
新北市,新莊區,建安里,65000050-070,王永華,新北市新莊區建安街101巷34號1樓,25.0235423,121.4270943
新北市,新莊區,成德里,65000050-071,王義寬,新北市新莊區八德街138巷3號,25.0205376,121.423563
新北市,新莊區,福興里,65000050-072,楊明教,新北市新莊區五工路68巷2號,25.0642782,121.4588816
新北市,新莊區,昌信里,65000050-073,柯明啓,新北市新莊區福壽街169巷10弄4號1樓,25.0539504,121.4575554
新北市,新莊區,昌隆里,65000050-074,吳永易,新北市新莊區中華路2段220號10樓,25.0527481,121.4523169
新北市,新莊區,中平里,65000050-075,鞏台興,新北市新莊區中平路270巷7弄19號,25.0509978,121.4456667
新北市,新莊區,立廷里,65000050-076,許任銘,新北市新莊區中平路198巷10號1樓,25.0483652,121.4456448
新北市,新莊區,泰豐里,65000050-077,林玉娟,新北市新莊區泰豐街19號,25.0316494,121.4483146
新北市,新莊區,富民里,65000050-078,陳清泉,新北市新莊區中正路829巷22弄14號,25.027148,121.4210672
新北市,新莊區,龍福里,65000050-079,陳立維,新北市新莊區中正路929巷33號,25.0198686,121.4114224
新北市,新莊區,祥鳳里,65000050-080,賴俊良,新北市新莊區天祥街121巷16號,25.0292063,121.4142103
新北市,新莊區,民全里,65000050-081,張文興,新北市新莊區民全街11號,25.0215111,121.4289279
新北市,新莊區,民有里,65000050-082,賴政源,新北市新莊區民本街33巷20號,25.0185651,121.4290208
新北市,新莊區,光正里,65000050-083,陳通助,新北市新莊區民安西路189巷29號,25.015474,121.427141
新北市,新莊區,光和里,65000050-084,林光燦,新北市新莊區西盛街344巷7號,25.0140345,121.4276045
新北市,新店區,國豐里,65000060-001,顏榮宏,新北市新店區建國路87號,24.97662,121.5403656
新北市,新店區,明德里,65000060-002,許漢隆,新北市新店區民族路25號12樓,24.9786666,121.5411135
新北市,新店區,大豐里,65000060-003,葉秀瓶,新北市新店區大豐路68巷12號3樓,24.9799769,121.5390283
新北市,新店區,大同里,65000060-004,俞賢明,新北市新店區北新路3段105巷7號4樓,24.9819329,121.5408907
新北市,新店區,江陵里,65000060-005,葉金珠,新北市新店區二十張路46之6號4樓,24.9809924,121.5374686
新北市,新店區,寶興里,65000060-006,周宥竣,新北市新店區寶元路二段43號2樓,24.981327,121.5471385
新北市,新店區,寶安里,65000060-007,宋美雪,新北市新店區北新路三段206巷1弄1號,24.9843257,121.5415443
新北市,新店區,信義里,65000060-008,林木己,新北市新店區寶安街70之1號,24.984752,121.541865
新北市,新店區,忠孝里,65000060-009,李約祥,新北市新店區中正路694巷5號2樓,24.9904721,121.5341281
新北市,新店區,大鵬里,65000060-010,喬廷彥,新北市新店區大鵬里中正路700巷26號2樓,24.9913801,121.5346797
新北市,新店區,太平里,65000060-011,李謝素珍,新北市新店區永業路4巷5號2樓,24.9564186,121.5336376
新北市,新店區,頂城里,65000060-012,王明籐,新北市新店區溪洲路6巷32號,24.9629618,121.5337663
新北市,新店區,下城里,65000060-013,廖瓊瑤,新北市新店區安康路1段186號,24.9631807,121.514159
新北市,新店區,柴埕里,65000060-014,黃金憲,新北市新店區安民街101號,24.9681478,121.5163376
新北市,新店區,永安里,65000060-015,林清一,新北市新店區永安里永安街76號4樓,24.986428,121.5198969
新北市,新店區,公崙里,65000060-016,游炎嵐,新北市新店區安康路2段87號,24.9627854,121.5132948
新北市,新店區,德安里,65000060-017,丁萬貴,新北市新店區安康路二段228巷35弄9號,24.9600074,121.5096431
新北市,新店區,雙城里,65000060-018,黃燦煌,新北市新店區安康路三段73號,24.9519539,121.4924847
新北市,新店區,日興里,65000060-019,廖景春,新北市新店區安康路3段517號1樓,24.9485179,121.482318
新北市,新店區,玫瑰里,65000060-020,施天賜,新北市新店區如意街9巷5號1樓,24.9481247,121.4947538
新北市,新店區,塗潭里,65000060-021,邱秀雄,新北市新店區新潭路二段61號,24.9263412,121.5218908
新北市,新店區,美潭里,65000060-022,簡明峰,新北市新店區北宜路2段205號,24.9534331,121.5531379
新北市,新店區,員潭里,65000060-023,鄭朝棟,新北市新店區北宜路2段222號,24.9543414,121.5596507
新北市,新店區,雙坑里,65000060-024,周興旺,新北市新店區雙峰路91號,24.9407681,121.5870541
新北市,新店區,粗坑里,65000060-025,周賢良,新北市新店區永興路15號,24.9392549,121.5442162
新北市,新店區,屈尺里,65000060-026,唐萬居,新北市新店區自強路84號,24.9241454,121.546304
新北市,新店區,龜山里,65000060-027,高義良,新北市新店區新烏路三段109號,24.9030278,121.5523705
新北市,新店區,廣興里,65000060-028,吳進興,新北市新店區平廣路一段35巷3號,24.9025309,121.5337991
新北市,新店區,直潭里,65000060-029,王金財,新北市新店區灣潭路5之1號,24.946215,121.542226
新北市,新店區,青潭里,65000060-030,林岑郁,新北市新店區新烏路1段9-1號4樓,24.9515784,121.547321
新北市,新店區,新店里,65000060-031,陳文德,新北市新店區新店路120號7樓,24.9548413,121.5372031
新北市,新店區,張南里,65000060-032,林國榮,新北市新店區環河路19巷12號1樓,24.9606762,121.5376136
新北市,新店區,國校里,65000060-033,郭儒鈞,新北市新店區國校路65巷1號,24.9539619,121.5386
新北市,新店區,文中里,65000060-034,劉閔禮,新北市新店區北宜路一段83號,24.956187,121.538705
新北市,新店區,廣明里,65000060-035,張添財,新北市新店區光明街119號,24.9615789,121.539196
新北市,新店區,文明里,65000060-036,卓振添,新北市新店區光明街155號,24.9624601,121.5395483
新北市,新店區,中興里,65000060-037,張正義,新北市新店區北新路一段50號,24.9662829,121.541143
新北市,新店區,新生里,65000060-038,黃頌之,新北市新店區北新路一段175號,24.964329,121.5399812
新北市,新店區,新德里,65000060-039,黃林鳳嬌,新北市新店區中華路46號,24.9684378,121.5397959
新北市,新店區,張北里,65000060-040,鄭富濃,新北市新店區中正路102巷8弄3號,24.9713747,121.5437636
新北市,新店區,五峯里,65000060-041,陳淑美,新北市新店區大新街9巷14號4樓,24.9674254,121.5438657
新北市,新店區,新安里,65000060-042,黃建福,新北市新店區永新街15號3樓,24.9757929,121.5436478
新北市,新店區,忠誠里,65000060-043,高子誼,新北市新店區忠誠里北新路2段97巷18號4樓,24.9743535,121.5418247
新北市,新店區,中正里,65000060-044,辜鳳琴,新北市新店區中正路247巷27弄5號4樓,24.972206,121.538681
新北市,新店區,中華里,65000060-045,邱湘羚,新北市新店區三民路57號4樓,24.9709957,121.5366616
新北市,新店區,仁愛里,65000060-046,林秀美,新北市新店區建國路40號,24.974758,121.540643
新北市,新店區,百忍里,65000060-047,陳建利,新北市新店區三民路84巷8號2樓,24.972867,121.534899
新北市,新店區,百和里,65000060-048,陳振傑,新北市新店區中正路306號2樓,24.9746034,121.5375085
新北市,新店區,福德里,65000060-049,張元亨,新北市新店區中正路401號2樓,24.9774798,121.5342699
新北市,新店區,百福里,65000060-050,林燕玲,新北市新店區百福里三民路117巷3弄13號3樓,24.9713512,121.5350118
新北市,新店區,福民里,65000060-051,盧浩賢,新北市新店區福園街11之1號,24.972816,121.533289
新北市,新店區,中山里,65000060-052,潘威志,新北市新店區溪園路361號1樓,24.9808555,121.5233367
新北市,新店區,和平里,65000060-053,閻培樞,新北市新店區和平里民生路156巷117號,24.982486,121.526543
新北市,新店區,中央里,65000060-054,王志翔,新北市新店區中央二街15號5樓,24.9733952,121.5289517
新北市,新店區,明城里,65000060-055,楊基生,新北市新店區明城里黎明路17號,24.9498218,121.5019918
新北市,新店區,安和里,65000060-056,劉淑美,新北市新店區安民街341-1號,24.9750582,121.5170785
新北市,新店區,吉祥里,65000060-057,林永輝,新北市新店區玫瑰路57巷46號1樓,24.9463445,121.4974421
新北市,新店區,寶福里,65000060-058,林清和,新北市新店區寶高路11號4樓,24.9778079,121.5519418
新北市,新店區,小城里,65000060-059,郭仁澤,新北市新店區小城里僑信路74巷11號,24.9486117,121.4994763
新北市,新店區,香坡里,65000060-060,劉文明,新北市新店區安祥路110巷20號,24.9565564,121.4743261
新北市,新店區,建國里,65000060-061,蘇高雪嬌,新北市新店區中正路280巷2號,24.9738637,121.5386976
新北市,新店區,復興里,65000060-062,劉洪珠,新北市新店區北新路三段211巷31號1樓,24.9858135,121.539384
新北市,新店區,美城里,65000060-063,翁智冠,新北市新店區永業路81巷5弄5號B1,24.9491958,121.5302622
新北市,新店區,安昌里,65000060-064,范姜玉嬌,新北市新店區安昌里安成街41號,24.961375,121.5095694
新北市,新店區,長春里,65000060-065,李傳傑,新北市新店區新坡一街41號1樓,24.962839,121.549038
新北市,新店區,新和里,65000060-066,仇雅彤,新北市新店區安和路三段130號B1,24.985939,121.516517
新北市,新店區,永平里,65000060-067,林木山,新北市新店區永平街77巷3號,24.985012,121.5157636
新北市,新店區,達觀里,65000060-068,金威,新北市新店區達觀里達觀路8巷5號13樓之4,24.9436315,121.5042623
新北市,新店區,華城里,65000060-069,花秋賢,新北市新店區大榮路3號,24.928027,121.5011848
新北市,樹林區,三多里,65000070-001,吳謝秀琴,新北市樹林區三多里保安街3段26巷1之1號,25.0113798,121.4131224
新北市,樹林區,三福里,65000070-002,藍添樹,新北市樹林區三福里三福街2號,25.0169611,121.409112
新北市,樹林區,三興里,65000070-003,王永村,新北市樹林區三興里龍興街13巷42號,25.0164958,121.4039944
新北市,樹林區,圳安里,65000070-004,許進旺,新北市樹林區圳安里俊英街222號,25.0100602,121.4249888
新北市,樹林區,保安里,65000070-005,詹勳坤,新北市樹林區保安里保安街1段20巷7弄3號1樓,24.9936687,121.4276942
新北市,樹林區,潭底里,65000070-006,許萬來,新北市樹林區潭底里保安街1段298號,24.9974092,121.4191212
新北市,樹林區,獇寮里,65000070-007,曾世賢,新北市樹林區寮里光榮街2之1號2樓,25.0041711,121.4130778
新北市,樹林區,樹德里,65000070-008,陳雲明,新北市樹林區樹德里長壽街70巷1弄17號,24.9945774,121.4212366
新北市,樹林區,樹西里,65000070-009,朱國豐,新北市樹林區樹西里中興街46號,24.9910252,121.4210778
新北市,樹林區,樹南里,65000070-010,邱垂章,新北市樹林區樹南里中山路1段306巷51弄17號,24.9698996,121.4321567
新北市,樹林區,樹人里,65000070-011,邱世昌,新北市樹林區樹人里復興路308巷2弄8號2樓,24.9874879,121.4169282
新北市,樹林區,坡內里,65000070-012,陳譽丰,新北市樹林區坡內里備內街109號,24.990118,121.405936
新北市,樹林區,樹東里,65000070-013,王吉二,新北市樹林區樹東里博愛街198之3號,24.989506,121.4247701
新北市,樹林區,大同里,65000070-014,陳華宗,新北市樹林區大同里太平路52巷10號,24.9821798,121.418548
新北市,樹林區,和平里,65000070-015,洪崑松,新北市樹林區和平里仁愛街12巷10號1樓,24.9816763,121.4220222
新北市,樹林區,彭厝里,65000070-016,黃嘉祥,新北市樹林區彭厝里太順街49巷20弄18號,24.9785739,121.417892
新北市,樹林區,彭福里,65000070-017,黃彩蓮,新北市樹林區彭福里中華路187巷10號3樓,24.9813703,121.4205221
新北市,樹林區,東山里,65000070-018,高健市,新北市樹林區東山里味王街46巷17號3樓,24.973746,121.4046609
新北市,樹林區,東陽里,65000070-019,林耿邦,新北市樹林區東陽里鎮前街461號1樓,24.9824134,121.4129948
新北市,樹林區,東昇里,65000070-020,詹麒叡,新北市樹林區東昇里東榮街69巷9號1樓,24.9827689,121.4173762
新北市,樹林區,樂山里,65000070-021,廖文斌,新北市樹林區樂山里中和街8號,24.973128,121.3917256
新北市,樹林區,東園里,65000070-022,陳兩進,新北市樹林區東園里田尾街252號,24.9488302,121.3979478
新北市,樹林區,西園里,65000070-023,陳振彥,新北市樹林區西園里柑園街2段247巷17號,24.9503731,121.3755053
新北市,樹林區,南園里,65000070-024,李培鈺,新北市樹林區南園里學勤路562號6樓,24.948522,121.3841776
新北市,樹林區,北園里,65000070-025,王仲卿,新北市樹林區北園里西圳街1段183巷29號,24.9599142,121.3950888
新北市,樹林區,柑園里,65000070-026,詹志昌,新北市樹林區柑園里柑園街2段26號,24.9556884,121.3878377
新北市,樹林區,樹北里,65000070-027,林俊明,新北市樹林區樹北里四德街11號,24.9920629,121.426082
新北市,樹林區,圳福里,65000070-028,蘇益和,新北市樹林區圳福里樹新路219巷10號3樓,25.0007759,121.4305152
新北市,樹林區,樹興里,65000070-029,詹美齡,新北市樹林區樹興里文德街29號1樓,24.9920043,121.4182196
新北市,樹林區,樹福里,65000070-030,林游錦,新北市樹林區樹福里長壽街28巷19號,24.994455,121.4231555
新北市,樹林區,光興里,65000070-031,何明峰,新北市樹林區光興里光興街312號1樓,25.0055167,121.4075367
新北市,樹林區,金寮里,65000070-032,楊淑惠,新北市樹林區金寮里保安街2段49號,25.0002188,121.415934
新北市,樹林區,彭興里,65000070-033,賴文義,新北市樹林區彭興里八德街231號,24.9790569,121.421615
新北市,樹林區,文林里,65000070-034,甘永昌,新北市樹林區潭興街107巷21弄6號,24.9991492,121.4240404
新北市,樹林區,山佳里,65000070-035,許建強,新北市樹林區山佳里新興街19巷34弄27號,24.9723563,121.4020802
新北市,樹林區,中山里,65000070-036,簡炎輝,新北市樹林區中山里中山路3段241號,24.9722,121.3930358
新北市,樹林區,育英里,65000070-037,詹順吉,新北市樹林區中山路一段208號,24.9883287,121.421486
新北市,樹林區,中華里,65000070-038,張美珠,新北市樹林區中華里太元街27號4樓,24.9799452,121.4183692
新北市,樹林區,太順里,65000070-039,蔣榮井,新北市樹林區太順里太順街62巷3弄2號1樓,24.9797478,121.4175481
新北市,樹林區,圳民里,65000070-040,王墘,新北市樹林區圳民里俊英街155巷27號,25.012107,121.4233703
新北市,樹林區,圳生里,65000070-041,簡敬豪,新北市樹林區圳生里三俊街287號,25.0141024,121.4233619
新北市,樹林區,三龍里,65000070-042,周淑甘,新北市樹林區三龍里三龍街21號,25.0190833,121.4134183
新北市,鶯歌區,東鶯里,65000080-001,陳陸賀,新北市鶯歌區東鶯里文化路173號,24.9540527,121.3556287
新北市,鶯歌區,西鶯里,65000080-002,蘇炳輝,新北市鶯歌區西鶯里中正一路133號,24.9561427,121.3521855
新北市,鶯歌區,南鶯里,65000080-003,王明義,新北市鶯歌區南鶯里國慶街11號,24.9565778,121.3497129
新北市,鶯歌區,北鶯里,65000080-004,李松進,新北市鶯歌區北鶯里中正一路353號,24.9571485,121.357772
新北市,鶯歌區,中鶯里,65000080-005,蘇朝明,新北市鶯歌區中鶯里行政路40號,24.9558859,121.3529131
新北市,鶯歌區,建德里,65000080-006,林真達,新北市鶯歌區建德里中正一路建德2巷44號,24.9583049,121.364223
新北市,鶯歌區,同慶里,65000080-007,張素燕,新北市鶯歌區同慶里重慶街69號,24.951759,121.349309
新北市,鶯歌區,永昌里,65000080-008,游武雄,新北市鶯歌區永昌里鶯桃路95巷20號,24.9536701,121.3385144
新北市,鶯歌區,南靖里,65000080-009,吳金定,新北市鶯歌區南靖里文化路379號,24.950783,121.352542
新北市,鶯歌區,尖山里,65000080-010,陳怡潔,新北市鶯歌區尖山里尖山路191巷21號,24.9467775,121.3444459
新北市,鶯歌區,二橋里,65000080-011,李金量,新北市鶯歌區二橋里中正三路318巷20號,24.9368009,121.326827
新北市,鶯歌區,二甲里,65000080-012,林水土,新北市鶯歌區二甲里二甲路43之30號,24.9344453,121.3370224
新北市,鶯歌區,東湖里,65000080-013,呂阿添,新北市鶯歌區東湖里東湖路22號,24.9737908,121.3582311
新北市,鶯歌區,大湖里,65000080-014,蕭鈴玉,新北市鶯歌區大湖里明圓街1號,24.9767142,121.3357951
新北市,鶯歌區,鳳鳴里,65000080-015,陳芷柔,新北市鶯歌區鳳鳴里鶯桃路668巷22弄8號,24.9700744,121.3295141
新北市,鶯歌區,鳳福里,65000080-016,簡騰源,新北市鶯歌區鳳福里大湖路361巷48弄5號1樓,24.9774686,121.3304849
新北市,鶯歌區,永吉里,65000080-017,林茂哲,新北市鶯歌區永吉里鶯桃路206巷24弄14號,24.9594411,121.3380462
新北市,鶯歌區,中湖里,65000080-018,游昭斌,新北市鶯歌區中湖里大湖路金包珠巷13號,24.9724025,121.3445279
新北市,鶯歌區,鳳祥里,65000080-019,曾勝利,新北市鶯歌區鳳祥里鶯桃路507號1樓,24.9667635,121.3312661
新北市,鶯歌區,建國里,65000080-020,林清得,新北市鶯歌區建國里育智路49號1樓,24.9551638,121.3450622
新北市,三峽區,三峽里,65000090-001,黃宗祥,新北市三峽區三峽里民權街86號,24.9329219,121.369149
新北市,三峽區,秀川里,65000090-002,李楷瑞,新北市三峽區秀川里忠孝街24號,24.9338816,121.3708255
新北市,三峽區,八張里,65000090-003,謝麗玲,新北市三峽區八張里中園街67號,24.9257249,121.3681798
新北市,三峽區,中埔里,65000090-004,林秀冬,新北市三峽區中埔里大同路241巷2號,24.9260955,121.3667287
新北市,三峽區,弘道里,65000090-005,陳錦桐,新北市三峽區弘道里大同路286巷11-1號,24.9251321,121.3636989
新北市,三峽區,永舘里,65000090-006,蘇正國,新北市三峽區永舘里和平街97號,24.9383002,121.3703296
新北市,三峽區,礁溪里,65000090-007,周志鴻,新北市三峽區礁溪里光明路3巷38-1號,24.9325936,121.3733757
新北市,三峽區,鳶山里,65000090-008,周文美,新北市三峽區鳶山里中山路128號,24.9360755,121.3655074
新北市,三峽區,龍埔里,65000090-009,陳椿瑩,新北市三峽區龍埔里國光街4之2號,24.9369414,121.3755758
新北市,三峽區,大埔里,65000090-010,陳永清,新北市三峽區大埔里中正路2段468之1號,24.9073369,121.3639323
新北市,三峽區,嘉添里,65000090-011,李萬興,新北市三峽區嘉添里嘉添9號,24.910249,121.37012
新北市,三峽區,添福里,65000090-012,陳秉源,新北市三峽區添福里添福107之6號,24.8966237,121.3756051
新北市,三峽區,金圳里,65000090-013,邱金菊,新北市三峽區金圳里金敏23之1號,24.872346,121.385455
新北市,三峽區,五寮里,65000090-014,王金生,新北市三峽區五寮里五寮41-31號,24.8614789,121.364238
新北市,三峽區,插角里,65000090-015,林坤郎,新北市三峽區插角里插角109號,24.871787,121.405534
新北市,三峽區,有木里,65000090-016,胡幸姍,新北市三峽區有木里有木193號,24.863415,121.432364
新北市,三峽區,溪北里,65000090-017,林清明,新北市三峽區溪北里橫溪路54號,24.9351854,121.3966325
新北市,三峽區,溪南里,65000090-018,蘇伯聰,新北市三峽區溪南里介壽路2段138巷1弄152-2號,24.9291907,121.3994391
新北市,三峽區,溪東里,65000090-019,陳錫遠,新北市三峽區溪東里溪東路299巷7號,24.9314123,121.4095667
新北市,三峽區,成福里,65000090-020,蔡文敏,新北市三峽區成福里成福路276號,24.923401,121.4282101
新北市,三峽區,安坑里,65000090-021,李秋維,新北市三峽區安坑里建安43號,24.928103,121.444926
新北市,三峽區,竹崙里,65000090-022,張博勇,新北市三峽區竹崙里紫微路40號,24.918354,121.4173399
新北市,三峽區,介壽里,65000090-023,周梓亭,新北市三峽區介壽里中正路1段47號,24.929841,121.374877
新北市,三峽區,安溪里,65000090-024,王曼甄,新北市三峽區安溪里中正路1段108巷14號,24.9295249,121.3741607
新北市,三峽區,中正里,65000090-025,陳志泉,新北市三峽區中正里正義街134號,24.9168117,121.3684094
新北市,三峽區,二鬮里,65000090-026,陳孝皇,新北市三峽區二鬮里二鬮路136巷16弄4號,24.9081896,121.3592545
新北市,三峽區,龍學里,65000090-027,周秀鳳,新北市三峽區龍學里學勤路172之5號25樓,24.946333,121.3763971
新北市,三峽區,龍恩里,65000090-028,黃家賢,新北市三峽區龍恩里國慶路152號12樓之5,24.9405958,121.3750849
新北市,淡水區,中和里,65000100-001,王文輝,新北市淡水區中和里小中寮12-1號,25.2314799,121.4852902
新北市,淡水區,屯山里,65000100-002,李永清,新北市淡水區屯山里石頭厝14-16號,25.2366362,121.4643182
新北市,淡水區,賢孝里,65000100-003,葉振昌,新北市淡水區賢孝里淡金路5段26號,25.2325255,121.4535614
新北市,淡水區,興仁里,65000100-004,盧仁澤,新北市淡水區興仁里興仁路127號,25.2186797,121.4515188
新北市,淡水區,蕃薯里,65000100-005,王壽喜,新北市淡水區蕃薯里水碓5號,25.222207,121.474466
新北市,淡水區,義山里,65000100-006,葉水金,新北市淡水區義山里淡金路3段274號,25.20691,121.448989
新北市,淡水區,忠山里,65000100-007,潘炳丁,新北市淡水區忠山里相公山1號,25.2066906,121.4745175
新北市,淡水區,崁頂里,65000100-008,盧春安,新北市淡水區崁頂里崁頂三路149號,25.2011629,121.4309049
新北市,淡水區,埤島里,65000100-009,蔡正忠,新北市淡水區埤島里行忠路146號,25.1992793,121.454658
新北市,淡水區,新興里,65000100-010,吳錦泉,新北市淡水區新興里新春街138號,25.181584,121.441597
新北市,淡水區,水碓里,65000100-011,孫麗明,新北市淡水區水碓里大仁街23號1樓,25.175323,121.4424714
新北市,淡水區,北投里,65000100-012,張麗卿,新北市淡水區北投里北新路1段163號,25.1778279,121.4444894
新北市,淡水區,水源里,65000100-013,張志楨,新北市淡水區水源里北新路2段28號,25.185651,121.4768292
新北市,淡水區,忠寮里,65000100-014,蔣耿南,新北市淡水區忠寮里破瓦厝子3-2號,25.1993104,121.4665162
新北市,淡水區,樹興里,65000100-015,許秋芳,新北市淡水區樹興里樹林口42之3號,25.1681993,121.4705027
新北市,淡水區,坪頂里,65000100-016,郭建義,新北市淡水區坪頂里坪頂路755巷9號,25.1583798,121.4834853
新北市,淡水區,福德里,65000100-017,郭清泉,新北市淡水區福德里自強路110-8號,25.1314124,121.4617778
新北市,淡水區,竹圍里,65000100-018,李啟源,新北市淡水區竹圍里民族路11號2樓,25.1370443,121.4604213
新北市,淡水區,民生里,65000100-019,陳李明緣,新北市淡水區民生里民生路113巷1弄70號,25.1385177,121.462313
新北市,淡水區,八勢里,65000100-020,沈欽裕,新北市淡水區八勢里中正東路2段41號,25.156259,121.459484
新北市,淡水區,竿蓁里,65000100-021,王信崇,新北市淡水區竿蓁里竿蓁二街36巷2號1樓,25.1629125,121.4539904
新北市,淡水區,鄧公里,65000100-022,邱美津,新北市淡水區鄧公里鄧公路35巷30號1樓,25.1712693,121.4527051
新北市,淡水區,中興里,65000100-023,江慶發,新北市淡水區中興里原德路58號,25.172692,121.4426404
新北市,淡水區,長庚里,65000100-024,陳崇煌,新北市淡水區長庚里中正路42號,25.169514,121.443537
新北市,淡水區,清文里,65000100-025,周文烈,新北市淡水區清文里清水街188-2號5樓,25.1709553,121.4406156
新北市,淡水區,草東里,65000100-026,黃逢晚,新北市淡水區草東里公明街25號4樓,25.1692091,121.442992
新北市,淡水區,協元里,65000100-027,蕭慶和,新北市淡水區協元里重建街175號,25.1742135,121.4406995
新北市,淡水區,永吉里,65000100-028,謝安棋,新北市淡水區永吉里清水街200號,25.1710675,121.4405975
新北市,淡水區,民安里,65000100-029,鄭英和,新北市淡水區民安里中正路85號,25.1696908,121.4405027
新北市,淡水區,新生里,65000100-030,洪正宗,新北市淡水區新生里中正路292號,25.1720434,121.4376726
新北市,淡水區,文化里,65000100-031,彭梅香,新北市淡水區文化里新民街71號1樓,25.1765274,121.4383381
新北市,淡水區,油車里,65000100-032,唐儷樺,新北市淡水區油車里淡海路72巷10號,25.1809963,121.423683
新北市,淡水區,沙崙里,65000100-033,王麗珠,新北市淡水區沙崙里淡海路189巷12號,25.1845556,121.4202082
新北市,淡水區,新義里,65000100-034,盧寶全,新北市淡水區新義里中山北路1段149巷6-4號,25.1776519,121.4426631
新北市,淡水區,新春里,65000100-035,莊志文,新北市淡水區新春里新春街61號,25.1821418,121.4380516
新北市,淡水區,新民里,65000100-036,林聖傑,新北市淡水區新民里新民街222巷16弄8號9樓,25.1800473,121.4368612
新北市,淡水區,正德里,65000100-037,黃俊雄,新北市淡水區正德里北新路141巷11號,25.1793148,121.4488629
新北市,淡水區,北新里,65000100-038,許春榮,新北市淡水區北新里北新路112號5樓,25.1782165,121.4476721
新北市,淡水區,民權里,65000100-039,江瑟媚,新北市淡水區民權里民族路112巷32號,25.1345638,121.4620653
新北市,淡水區,幸福里,65000100-040,李佳倩,新北市淡水區幸福里學府路51巷3弄11號,25.1694002,121.447139
新北市,淡水區,學府里,65000100-041,林文成,新北市淡水區學府里水源街2段52號2樓,25.1738214,121.4507835
新北市,淡水區,大庄里,65000100-042,林建仲,新北市淡水區大庄里沙崙路201巷26號,25.186893,121.419332
新北市,汐止區,義民里,65000110-001,吳佩銘,新北市汐止區中正路152號,25.069619,121.659702
新北市,汐止區,禮門里,65000110-002,李朝發,新北市汐止區大同路二段372巷12號,25.0670461,121.6577299
新北市,汐止區,智慧里,65000110-003,黃智明,新北市汐止區大同路二段271號8樓,25.0669454,121.653051
新北市,汐止區,信望里,65000110-004,楊順德,新北市汐止區中正路14號,25.070338,121.662891
新北市,汐止區,橋東里,65000110-005,陶威中,新北市汐止區忠孝東路475-1號,25.073081,121.6659631
新北市,汐止區,秀峰里,65000110-006,蘇樹木,新北市汐止區福安街20巷7號1樓,25.0648369,121.662455
新北市,汐止區,新昌里,65000110-007,林碧霞,新北市汐止區水碓街36號,25.0695768,121.6648201
新北市,汐止區,復興里,65000110-008,蕭素真,新北市汐止區龍安路38號7樓之6,25.063694,121.654601
新北市,汐止區,茄苳里,65000110-009,葉雅惠,新北市汐止區茄苳路264號,25.068052,121.671851
新北市,汐止區,長安里,65000110-010,楊清風,新北市汐止區長興街一段8巷16號,25.0785569,121.670036
新北市,汐止區,保安里,65000110-011,蘇忠吉,新北市汐止區汐平路一段13號,25.0711819,121.681111
新北市,汐止區,保長里,65000110-012,賴宗福,新北市汐止區保長路51巷20號之1,25.078792,121.6743892
新北市,汐止區,鄉長里,65000110-013,曾俊華,新北市汐止區鄉長路二段6巷15號,25.0807581,121.6692436
新北市,汐止區,江北里,65000110-014,謝祚敏,新北市汐止區長江街13巷5弄2號,25.0716888,121.6546912
新北市,汐止區,拱北里,65000110-015,高世國,新北市汐止區汐萬路二段339號,25.0904412,121.644658
新北市,汐止區,烘內里,65000110-016,魏語徵,新北市汐止區汐萬路三段258號,25.1045945,121.6438456
新北市,汐止區,八連里,65000110-017,廖敏汝,新北市汐止區八連路二段439號,25.103899,121.628211
新北市,汐止區,樟樹里,65000110-018,林有財,新北市汐止區工建路506巷2號2樓,25.0582417,121.6333666
新北市,汐止區,北峰里,65000110-019,陳南海,新北市汐止區康寧街429號1樓,25.0683323,121.6305114
新北市,汐止區,北山里,65000110-020,林徵熊,新北市汐止區康寧街141巷5號,25.067367,121.621261
新北市,汐止區,白雲里,65000110-021,陳俊地,新北市汐止區水源路二段72巷50弄26號1樓,25.053995,121.654667
新北市,汐止區,橫科里,65000110-022,詹清山,新北市汐止區橫科路4巷41號6樓,25.0502687,121.6174043
新北市,汐止區,東山里,65000110-023,林錦定,新北市汐止區汐平路二段35號,25.063929,121.696543
新北市,汐止區,福山里,65000110-024,謝志忠,新北市汐止區合順街29號,25.0432113,121.6203621
新北市,汐止區,宜興里,65000110-025,陳清溪,新北市汐止區宜興街20巷24號4樓,25.0407928,121.622192
新北市,汐止區,中興里,65000110-026,蔡振國,新北市汐止區福德一路272巷10號1樓,25.0641811,121.6320795
新北市,汐止區,湖光里,65000110-027,夏潔書,新北市汐止區康寧街751巷13號3樓之2,25.075273,121.637105
新北市,汐止區,仁德里,65000110-028,吳清連,新北市汐止區和平街6巷5弄2號,25.07184,121.6633771
新北市,汐止區,厚德里,65000110-029,陳有諒,新北市汐止區樟樹二路277巷24號1樓,25.068839,121.640182
新北市,汐止區,忠孝里,65000110-030,丁彥伶,新北市汐止區樟樹一路119巷10弄8號4樓,25.064786,121.640956
新北市,汐止區,自強里,65000110-031,康金龍,新北市汐止區水源路一段188號,25.0618415,121.6548183
新北市,汐止區,文化里,65000110-032,余寶聰,新北市汐止區南興路83巷13號,25.0591659,121.653758
新北市,汐止區,金龍里,65000110-033,陳美麗,新北市汐止區民族五街2之5號9樓之2,25.0715691,121.629516
新北市,汐止區,福德里,65000110-034,林山永,新北市汐止區福德一路183號,25.065782,121.635817
新北市,汐止區,興福里,65000110-035,韓君灝,新北市汐止區福德一路159巷7號10樓,25.0663334,121.6367716
新北市,汐止區,康福里,65000110-036,曾淑蘭,新北市汐止區福德一路106巷16號6樓,25.0683989,121.6371931
新北市,汐止區,忠山里,65000110-037,吳國全,新北市汐止區忠三街120巷56號1樓,25.0798543,121.6295041
新北市,汐止區,環河里,65000110-038,杜璧娟,新北市汐止區福德一路409號,25.0601427,121.6271481
新北市,汐止區,東勢里,65000110-039,賴一山,新北市汐止區東勢街190巷5號,25.0415189,121.6339486
新北市,汐止區,山光里,65000110-040,陳永松,新北市汐止區樟樹二路334號3樓,25.070354,121.64167
新北市,汐止區,大同里,65000110-041,黃翠華,新北市汐止區大同路二段312巷2號2樓,25.0659805,121.6559052
新北市,汐止區,崇德里,65000110-042,蘇宏杰,新北市汐止區中華街35號3樓,25.071455,121.6672114
新北市,汐止區,湖興里,65000110-043,郭書成,新北市汐止區伯爵街50號B1,25.0802181,121.6380613
新北市,汐止區,長青里,65000110-044,陳建興,新北市汐止區長青路188巷7號,25.1112859,121.606045
新北市,汐止區,福安里,65000110-045,顏群宗,新北市汐止區新台五路二段116巷15弄3號2樓,25.0657942,121.6632279
新北市,汐止區,秀山里,65000110-046,廖烱華,新北市汐止區勤進路12巷34號1樓,25.062671,121.659365
新北市,汐止區,建成里,65000110-047,黃信裕,新北市汐止區建成路178巷10號2樓,25.0736907,121.6611196
新北市,汐止區,城中里,65000110-048,廖福賢,新北市汐止區建成路29號,25.0726495,121.6640274
新北市,汐止區,湖蓮里,65000110-049,曾連福,新北市汐止區湖前街110巷97弄24號(水蓮生活館),25.0756958,121.6329477
新北市,汐止區,保新里,65000110-050,吳明道,新北市汐止區大同路三段621號6樓,25.0750397,121.6827643
新北市,瑞芳區,龍潭里,65000120-001,陳淑霞,新北市瑞芳區龍潭里中正路75號2樓,25.107526,121.8055314
新北市,瑞芳區,龍興里,65000120-002,黃錫基,新北市瑞芳區龍興里民權街鐵路巷5號,25.1085215,121.8077273
新北市,瑞芳區,龍鎮里,65000120-003,林文清,新北市瑞芳區龍鎮里明燈路二段54號,25.107831,121.809787
新北市,瑞芳區,龍川里,65000120-004,賴鴻春,新北市瑞芳區龍川里明燈路三段109號,25.1088379,121.8037916
新北市,瑞芳區,龍山里,65000120-005,陳志強,新北市瑞芳區龍山里逢甲路410號3樓,25.1179742,121.8015482
新北市,瑞芳區,龍安里,65000120-006,柯瑞和,新北市瑞芳區龍安里瑞芳街50號,25.1097671,121.8059154
新北市,瑞芳區,爪峯里,65000120-007,簡明慧,新北市瑞芳區爪峯里三爪子坑路69巷1號,25.1066136,121.8126689
新北市,瑞芳區,柑坪里,65000120-008,許銘仁,新北市瑞芳區柑坪里明燈路一段125號,25.1071016,121.8197162
新北市,瑞芳區,東和里,65000120-009,周樹木,新北市瑞芳區東和里中山路55號,25.1063846,121.8044018
新北市,瑞芳區,上天里,65000120-010,林瑞明,新北市瑞芳區上天里粗坑口路46號,25.0990206,121.7613688
新北市,瑞芳區,吉慶里,65000120-011,簡惠麗,新北市瑞芳區吉慶里瑞竹路98號1樓,25.1037497,121.7627529
新北市,瑞芳區,吉安里,65000120-012,謝永昌,新北市瑞芳區吉安里大埔路吉慶公園城63號2樓,25.100225,121.765327
新北市,瑞芳區,傑魚里,65000120-013,周清標,新北市瑞芳區傑魚里魚坑路195號,25.1073364,121.7881286
新北市,瑞芳區,猴硐里,65000120-014,楊志德,新北市瑞芳區猴硐里侯硐路43號,25.0828351,121.8256508
新北市,瑞芳區,光復里,65000120-015,周晉億,新北市瑞芳區光復里柴寮路97號,25.0816862,121.8240783
新北市,瑞芳區,弓橋里,65000120-016,潘政信,新北市瑞芳區弓橋里九芎橋路4之2號,25.0906945,121.8318771
新北市,瑞芳區,碩仁里,65000120-017,林富萬,新北市瑞芳區碩仁里魚寮路103號,25.0591828,121.8222334
新北市,瑞芳區,基山里,65000120-018,石智能,新北市瑞芳區基山里基山街64號,25.1084788,121.8449012
新北市,瑞芳區,永慶里,65000120-019,王添來,新北市瑞芳區永慶里基山街3號,25.1097533,121.8452379
新北市,瑞芳區,崇文里,65000120-020,江李美女,新北市瑞芳區崇文里基山街136號,25.1082425,121.8436848
新北市,瑞芳區,福住里,65000120-021,蘇進益,新北市瑞芳區福住里佛堂巷59號,25.1063843,121.8417206
新北市,瑞芳區,頌德里,65000120-022,林高白梅,新北市瑞芳區頌德里坑尾巷29號,25.110698,121.8441517
新北市,瑞芳區,新山里,65000120-023,吳苓芳,新北市瑞芳區新山里金光路227號,25.1071684,121.8515451
新北市,瑞芳區,瓜山里,65000120-024,張英傑,新北市瑞芳區瓜山里金光路133號,25.1068188,121.8538021
新北市,瑞芳區,銅山里,65000120-025,陳嶽生,新北市瑞芳區銅山里祈堂路53號右部1,25.1103401,121.8596544
新北市,瑞芳區,石山里,65000120-026,吳乾正,新北市瑞芳區石山里山尖路137號,25.1139853,121.8545242
新北市,瑞芳區,濓新里,65000120-027,黃瑞聰,新北市瑞芳區濓新里明里路3號之１,25.1204244,121.8680582
新北市,瑞芳區,濓洞里,65000120-028,陳美杏,新北市瑞芳區濓洞里洞頂路155-4號,25.1220112,121.8613513
新北市,瑞芳區,海濱里,65000120-029,鄧麗華,新北市瑞芳區海濱里海濱路168號2樓,25.1211446,121.829287
新北市,瑞芳區,瑞濱里,65000120-030,胡長安,新北市瑞芳區瑞濱里永龍新邨9號2樓,25.1186255,121.8178269
新北市,瑞芳區,深澳里,65000120-031,賴孟宏,新北市瑞芳區深澳里深澳路103號,25.1311209,121.8192078
新北市,瑞芳區,南雅里,65000120-032,吳顯煌,新北市瑞芳區南雅里南雅路33之1號2樓,25.1198792,121.888623
新北市,瑞芳區,鼻頭里,65000120-033,王坤吉,新北市瑞芳區鼻頭里鼻頭路179-2號,25.1230495,121.9156154
新北市,瑞芳區,新峰里,65000120-034,黃茂峻,新北市瑞芳區新峰里三爪子坑路29巷58號,25.107378,121.816643
新北市,土城區,埤塘里,65000130-001,邱顯俊,新北市土城區埤塘里金城路一段36號,24.9695859,121.441611
新北市,土城區,土城里,65000130-002,徐信榮,新北市土城區慶安街12號,24.973585,121.441833
新北市,土城區,員林里,65000130-003,蔡黃地,新北市土城區員林里中央路二段149巷12號,24.9765657,121.4427188
新北市,土城區,員仁里,65000130-004,洪永富,新北市土城區中央路二段370號,24.9715227,121.4396833
新北市,土城區,長風里,65000130-005,石忠利,新北市土城區中華路二段89巷2弄1號10樓,24.9777187,121.4400632
新北市,土城區,日新里,65000130-006,吳信坪,新北市土城區中華路1段177號12樓,24.985678,121.443696
新北市,土城區,日和里,65000130-007,李福源,新北市土城區日和里中央路一段260巷2號2樓,24.98439,121.444106
新北市,土城區,貨饒里,65000130-008,許春騰,新北市土城區裕民路55巷19弄12號,24.988476,121.4488468
新北市,土城區,柑林里,65000130-009,張育誠,新北市土城區柑林里清水路99巷7號,24.982074,121.456625
新北市,土城區,埤林里,65000130-010,蔡志紅,新北市土城區埤林里學成路33巷7號,24.9866979,121.4524164
新北市,土城區,瑞興里,65000130-011,蔡萬合,新北市土城區德興街97號,24.9928887,121.4536433
新北市,土城區,清水里,65000130-012,江純文,新北市土城區清水里明德路一段240巷48號,24.9784222,121.4599207
新北市,土城區,清和里,65000130-013,張源寶,新北市土城區清和里青雲路483巷12弄11號,24.9732134,121.4598855
新北市,土城區,永豐里,65000130-014,黃榮沐,新北市土城區永豐里清水路278巷10弄5號,24.9828462,121.4618834
新北市,土城區,清化里,65000130-015,袁慧如,新北市土城區青雲路454號,24.9702837,121.4591337
新北市,土城區,清溪里,65000130-016,彭兆鵬,新北市土城區青雲路183巷11弄13號,24.9832135,121.4595677
新北市,土城區,峯廷里,65000130-017,林献章,新北市土城區峯廷里延安街23號,24.9854497,121.4677553
新北市,土城區,平和里,65000130-018,戴文龍,新北市土城區延和路105巷8弄6號,24.991285,121.4675275
新北市,土城區,廷寮里,65000130-019,李月嬌,新北市土城區廷寮里永豐路255巷25弄14號,24.9732538,121.4757836
新北市,土城區,大安里,65000130-020,張俊隆,新北市土城區大安里中央路三段76巷4號,24.967501,121.4363483
新北市,土城區,永寧里,65000130-021,周清芳,新北市土城區永寧里永安街82號,24.9638779,121.4317362
新北市,土城區,沛陂里,65000130-022,陳國友,新北市土城區沛陂里福安街53號,24.9644037,121.4185504
新北市,土城區,頂埔里,65000130-023,林忠謀,新北市土城區頂埔里中央路四段103號,24.957841,121.4166937
新北市,土城區,頂福里,65000130-024,顏義信,新北市土城區頂福里中央路四段220號,24.9573287,121.4156492
新北市,土城區,頂新里,65000130-025,許元皇,新北市土城區頂新里中央路四段279巷19號2樓之3,24.953171,121.412557
新北市,土城區,祖田里,65000130-026,呂惠美,新北市土城區祖田里溪頭路129號,24.9512419,121.409802
新北市,土城區,樂利里,65000130-027,黃銀片,新北市土城區樂利里學府路一段228巷2弄9號,24.9857276,121.4514046
新北市,土城區,廣福里,65000130-028,丁科秀,新北市土城區廣福里學府路一段75巷16弄3號5樓,24.9873789,121.4571757
新北市,土城區,學府里,65000130-029,宮敬家,新北市土城區學府里學府路一段157號3樓,24.9858123,121.4531677
新北市,土城區,延壽里,65000130-030,滕月蘭,新北市土城區延壽里延壽路75巷16弄1號,24.991805,121.468683
新北市,土城區,安和里,65000130-031,古秋源,新北市土城區安和里延和路66號3樓,24.9890663,121.4659187
新北市,土城區,青雲里,65000130-032,廖特青,新北市土城區青雲里清水路143號,24.9815392,121.4582825
新北市,土城區,員福里,65000130-033,黃崇煒,新北市土城區福祥街59號2樓,24.9804308,121.4409474
新北市,土城區,延吉里,65000130-034,楊季堂,新北市土城區延吉里延吉街85號,24.9869789,121.471987
新北市,土城區,復興里,65000130-035,李世棟,新北市土城區廣明街23巷12號,24.9924429,121.4549267
新北市,土城區,裕生里,65000130-036,楊忠富,新北市土城區中央路一段118巷1弄13號,24.9877604,121.4458473
新北市,土城區,員信里,65000130-037,杜林秀英,新北市土城區員信里福仁街46號,24.9752726,121.4397057
新北市,土城區,永富里,65000130-038,黃思儀,新北市土城區永富里延吉街296巷8號,24.9845375,121.464521
新北市,土城區,學成里,65000130-039,戴有利,新北市土城區學成路91巷16號,24.9879335,121.450403
新北市,土城區,延和里,65000130-040,黃富源,新北市土城區延和里延和路28號,24.9884127,121.4648905
新北市,土城區,中正里,65000130-041,呂聰成,新北市土城區中正里裕民路257之2號6樓,24.982932,121.4548164
新北市,土城區,學士里,65000130-042,黃榮葵,新北市土城區裕民路214巷38號,24.9838177,121.4525086
新北市,土城區,明德里,65000130-043,呂理民,新北市土城區學府路一段288號,24.9827882,121.4496456
新北市,土城區,廣興里,65000130-044,張淑玲,新北市土城區廣興里學府路一段20之1號,24.9886039,121.4586643
新北市,土城區,青山里,65000130-045,姚韋華,新北市土城區青山里國際路139巷77號,24.977503,121.468994
新北市,土城區,金城里,65000130-046,黃郁惠,新北市土城區金城里明峯街6巷23號,24.9854392,121.4658931
新北市,土城區,延祿里,65000130-047,周婕,新北市土城區金城路三段209號,24.9896289,121.470487
新北市,蘆洲區,正義里,65000140-001,林志修,新北市蘆洲區光榮路97巷15號7樓,25.0893107,121.4622841
新北市,蘆洲區,中原里,65000140-002,陳國連,新北市蘆洲區中正路243巷7弄34號,25.0859068,121.4672158
新北市,蘆洲區,中路里,65000140-003,張宗耀,新北市蘆洲區中路里和平路162號,25.081175,121.466562
新北市,蘆洲區,光華里,65000140-004,李鵬毅,新北市蘆洲區光華里光華路26巷11號,25.0836615,121.4690316
新北市,蘆洲區,保佑里,65000140-005,李紹和,新北市蘆洲區民族路574號,25.0887053,121.4671025
新北市,蘆洲區,水湳里,65000140-006,吳松標,新北市蘆洲區三民路128巷82弄2號2樓,25.0897717,121.4699665
新北市,蘆洲區,樓厝里,65000140-007,李煒寅,新北市蘆洲區復興路232號,25.0893906,121.4794103
新北市,蘆洲區,鷺江里,65000140-008,楊筱葉,新北市蘆洲區信義路349號,25.0872912,121.4776792
新北市,蘆洲區,恆德里,65000140-009,李常孝,新北市蘆洲區中山一路120巷7弄3號,25.0818495,121.4772834
新北市,蘆洲區,溪墘里,65000140-010,李永芳,新北市蘆洲區溪墘里信義路119巷5號,25.0804588,121.4784042
新北市,蘆洲區,樹德里,65000140-011,李芳龍,新北市蘆洲區中山一路233號,25.0806478,121.4736075
新北市,蘆洲區,保和里,65000140-012,楊總仁,新北市蘆洲區忠孝路62號1樓,25.0848793,121.4716383
新北市,蘆洲區,仁復里,65000140-013,李德勝,新北市蘆洲區中央路20巷11號,25.0829007,121.4739321
新北市,蘆洲區,得勝里,65000140-014,蔡志選,新北市蘆洲區成功路49巷2號,25.0804244,121.4723864
